[
  {
    "id": "1395",
    "address": "17 შინდისელი გმირის ქ.",
    "coordinates": [44.8687747, 41.68994379999999],
    "parentId": 9
  },
  {
    "id": "1089",
    "address": "26 მაისის მოედანი.",
    "coordinates": [44.7784296, 41.7178932],
    "parentId": 3
  },
  {
    "id": "823",
    "address": "300 არაგველის ქ.",
    "coordinates": [44.9659681, 41.7363909],
    "parentId": 21
  },
  {
    "id": "952",
    "address": "8 მარტის ქ.",
    "coordinates": [44.789983, 41.7011838],
    "parentId": 51
  },
  {
    "id": "953",
    "address": "9 აპრილის ქ.",
    "coordinates": [44.7975216, 41.6959577],
    "parentId": 51
  },
  {
    "id": "147",
    "address": "I კვარტალი - ვაჟა ფშაველა",
    "coordinates": [44.74057819999999, 41.7263268],
    "parentId": 5
  },
  {
    "id": "207",
    "address": "I მიკრორაიონი - ვარკეთილი",
    "coordinates": [44.8757667, 41.7004639],
    "parentId": 9
  },
  {
    "id": "297",
    "address": "I ხეივნის ქ.",
    "coordinates": [44.9919024, 41.7102539],
    "parentId": 14
  },
  {
    "id": "148",
    "address": "II კვარტალი - ვაჟა ფშაველა",
    "coordinates": [44.7338265, 41.72563479999999],
    "parentId": 5
  },
  {
    "id": "196",
    "address": "II მიკრორაიონი - ვარკეთილი",
    "coordinates": [44.8852122, 41.7031601],
    "parentId": 9
  },
  {
    "id": "1146",
    "address": "II მიკრორაიონი - ზემო პლატო",
    "coordinates": [44.8757762, 41.6971105],
    "parentId": 9
  },
  {
    "id": "236",
    "address": "II ხეივანი",
    "coordinates": [44.8295644, 41.6797093],
    "parentId": 10
  },
  {
    "id": "298",
    "address": "II ხეივნის ქ.",
    "coordinates": [44.8295644, 41.6797093],
    "parentId": 14
  },
  {
    "id": "149",
    "address": "III კვარტალი - ვაჟა ფშაველა",
    "coordinates": [44.7270754, 41.7249423],
    "parentId": 5
  },
  {
    "id": "782",
    "address": "III მიკრორაიონი - ვარკეთილი",
    "coordinates": [44.8757667, 41.7004639],
    "parentId": 9
  },
  {
    "id": "150",
    "address": "IV კვარტალი - ვაჟა ფშაველა",
    "coordinates": [44.7203241, 41.7242493],
    "parentId": 5
  },
  {
    "id": "198",
    "address": "IV მიკრორაიონი - ვარკეთილი",
    "parentId": 9
  },
  {
    "id": "1437",
    "address": "IV მიკრორაიონი, II რიგი",
    "coordinates": [44.8577785, 41.6978223],
    "parentId": 9
  },
  {
    "id": "151",
    "address": "V კვარტალი - ვაჟა ფშაველა",
    "coordinates": [44.7135645, 41.724898],
    "parentId": 5
  },
  {
    "id": "152",
    "address": "VI კვარტალი - ვაჟა ფშაველა",
    "coordinates": [44.7203498, 41.7202227],
    "parentId": 5
  },
  {
    "id": "1133",
    "address": "VII კვარტალი - ვაჟა ფშაველა",
    "coordinates": [44.7270919, 41.7222578],
    "parentId": 5
  },
  {
    "id": "1479",
    "address": "ა. ბაქრაძის ქ.",
    "coordinates": [44.77128510000001, 41.747402],
    "parentId": 3
  },
  {
    "id": "1024",
    "address": "ა. კათალიკოსის ჩიხი,",
    "parentId": 52
  },
  {
    "id": "625",
    "address": "ა. კერესელიძის ქ.",
    "coordinates": [44.783328, 41.729908],
    "parentId": 1
  },
  {
    "id": "1542",
    "address": "ა. ჩხენკელის ქ.",
    "coordinates": [44.8661999, 41.7085912],
    "parentId": 9
  },
  {
    "id": "1181",
    "address": "ა.ანდრონიკაშვილის ქ.",
    "coordinates": [44.7842367, 41.7316047],
    "parentId": 49
  },
  {
    "id": "1090",
    "address": "ა.გელოვანის ქ.",
    "coordinates": [44.7803098, 41.8157958],
    "parentId": 3
  },
  {
    "id": "1564",
    "address": "ა.დადიანის ქ.",
    "coordinates": [44.7984656, 41.7292731],
    "parentId": 16
  },
  {
    "id": "1456",
    "address": "ა.კალანდაძის ქ.",
    "coordinates": [44.77139529999999, 41.7267829],
    "parentId": 3
  },
  {
    "id": "1",
    "address": "ა.რაზმაძის ქ.",
    "coordinates": [44.7595171, 41.7072524],
    "parentId": 47
  },
  {
    "id": "954",
    "address": "ა.ქუთათელაძის ქ.",
    "coordinates": [44.7961973, 41.7029019],
    "parentId": 51
  },
  {
    "id": "626",
    "address": "ა.ქურდიანის ქ.",
    "coordinates": [44.7883816, 41.7249906],
    "parentId": 1
  },
  {
    "id": "627",
    "address": "ა.წერეთლის გამზ.",
    "coordinates": [44.7833816, 41.7347327],
    "parentId": 1
  },
  {
    "id": "425",
    "address": "ა.ჯანელიძის ქ.",
    "coordinates": [44.8504067, 41.6940675],
    "parentId": 41
  },
  {
    "id": "955",
    "address": "აბაკელიას ქ.",
    "coordinates": [44.79160510000001, 41.7006778],
    "parentId": 51
  },
  {
    "id": "820",
    "address": "აბანოს I ჩიხი",
    "coordinates": [44.8111913, 41.6882817],
    "parentId": 20
  },
  {
    "id": "821",
    "address": "აბანოს II ჩიხი",
    "coordinates": [44.8110012, 41.6881208],
    "parentId": 20
  },
  {
    "id": "822",
    "address": "აბანოს ქ.",
    "coordinates": [44.8108076, 41.6883001],
    "parentId": 20
  },
  {
    "id": "628",
    "address": "აბასთუმნის ქ.",
    "coordinates": [44.7938285, 41.7215262],
    "parentId": 1
  },
  {
    "id": "2",
    "address": "აბაშელის ქ.",
    "coordinates": [44.7633147, 41.70551],
    "parentId": 47
  },
  {
    "id": "1025",
    "address": "აბესაძის ქ.",
    "coordinates": [44.8032492, 41.6927961],
    "parentId": 52
  },
  {
    "id": "1026",
    "address": "აბო თბილელის ქ.",
    "coordinates": [44.804782, 41.690995],
    "parentId": 52
  },
  {
    "id": "1027",
    "address": "აბოვიანის ქ.",
    "coordinates": [44.8057626, 41.6911632],
    "parentId": 52
  },
  {
    "id": "1382",
    "address": "აბრამიშვილის ქ.",
    "parentId": 10
  },
  {
    "id": "1171",
    "address": "აბულაძის ქ.",
    "coordinates": [44.7584353, 41.7126145],
    "parentId": 47
  },
  {
    "id": "1301",
    "address": "აბულის ქ.",
    "coordinates": [44.8286199, 41.7024595],
    "parentId": 22
  },
  {
    "id": "675",
    "address": "აგარის ქ.",
    "coordinates": [44.8124752, 41.7199909],
    "parentId": 31
  },
  {
    "id": "1295",
    "address": "აგიაშვილის ქ.",
    "coordinates": [44.8342737, 41.7268836],
    "parentId": 41
  },
  {
    "id": "629",
    "address": "აგლაძის ქ.",
    "coordinates": [44.7783409, 41.7358595],
    "parentId": 1
  },
  {
    "id": "676",
    "address": "ადიგენის ქ.",
    "coordinates": [44.8086029, 41.7062512],
    "parentId": 31
  },
  {
    "id": "192",
    "address": "აეროდრომის დას.",
    "coordinates": [44.8685798, 41.6909657],
    "parentId": 9
  },
  {
    "id": "824",
    "address": "ავლაბრის ქ.",
    "coordinates": [44.811804, 41.6944004],
    "parentId": 21
  },
  {
    "id": "1028",
    "address": "ავლევის შეს.",
    "coordinates": [44.811804, 41.6944004],
    "parentId": 52
  },
  {
    "id": "1029",
    "address": "ათონელის ქ.",
    "coordinates": [44.8036261, 41.6982459],
    "parentId": 52
  },
  {
    "id": "1030",
    "address": "აკოფიანის ქ.",
    "parentId": 52
  },
  {
    "id": "1091",
    "address": "აკურის ქ.",
    "parentId": 3
  },
  {
    "id": "158",
    "address": "ალ. იოსელიანის ქ.",
    "coordinates": [44.7082022, 41.7187832],
    "parentId": 3
  },
  {
    "id": "957",
    "address": "ალ. ჭავჭავაძის ქ.",
    "coordinates": [44.7012564, 41.7007635],
    "parentId": 51
  },
  {
    "id": "1087",
    "address": "ალ.ყაზბეგის გამზ.",
    "coordinates": [44.7537828, 41.7249769],
    "parentId": 3
  },
  {
    "id": "677",
    "address": "ალადაშვილის ქ.",
    "coordinates": [44.8176983, 41.6959057],
    "parentId": 21
  },
  {
    "id": "825",
    "address": "ალაზნის ქ.",
    "coordinates": [45.3290043, 41.7351018],
    "parentId": 21
  },
  {
    "id": "299",
    "address": "ალგეთის ქ.",
    "coordinates": [44.8151971, 41.685964],
    "parentId": 14
  },
  {
    "id": "426",
    "address": "ალექსი-მესხიშვილის ქ.",
    "coordinates": [44.79891749999999, 41.7010846],
    "parentId": 51
  },
  {
    "id": "678",
    "address": "ალვანის ქ.",
    "parentId": 31
  },
  {
    "id": "826",
    "address": "ალიხანიანის ქ.",
    "coordinates": [44.8172467, 41.6910358],
    "parentId": 21
  },
  {
    "id": "958",
    "address": "ამაღლების ქ.",
    "coordinates": [44.7935463, 41.689817],
    "parentId": 51
  },
  {
    "id": "1031",
    "address": "ამაღლების ქ.",
    "coordinates": [44.7935463, 41.689817],
    "parentId": 52
  },
  {
    "id": "959",
    "address": "ამაღლების შეს.",
    "coordinates": [44.7923085, 41.6892088],
    "parentId": 51
  },
  {
    "id": "1092",
    "address": "ამბროლაურის ქ.",
    "coordinates": [44.8595313, 41.7744993],
    "parentId": 3
  },
  {
    "id": "211",
    "address": "ამირეჯიბის ქ.",
    "coordinates": [44.9440371, 41.652463],
    "parentId": 10
  },
  {
    "id": "679",
    "address": "ანაკლიის ქ.",
    "coordinates": [44.8020744, 41.7143165],
    "parentId": 31
  },
  {
    "id": "903",
    "address": "ანანურის ქ.",
    "parentId": 23
  },
  {
    "id": "212",
    "address": "ანდღულაძის ქ.",
    "coordinates": [44.8438364, 41.6914774],
    "parentId": 10
  },
  {
    "id": "681",
    "address": "ანთელავას ქ.",
    "coordinates": [44.8087075, 41.6996708],
    "parentId": 31
  },
  {
    "id": "1294",
    "address": "ანტონოვსკაიას ქ.",
    "coordinates": [44.748267, 41.7241375],
    "parentId": 3
  },
  {
    "id": "904",
    "address": "ანჯაფარიძის ქ.",
    "coordinates": [44.8358113, 41.6860173],
    "parentId": 23
  },
  {
    "id": "905",
    "address": "არაგვის ქ.",
    "parentId": 23
  },
  {
    "id": "682",
    "address": "არაგვისპირელის ქ.",
    "coordinates": [44.8070888, 41.7082646],
    "parentId": 31
  },
  {
    "id": "827",
    "address": "არარატის ქ.",
    "coordinates": [44.8126772, 41.6929455],
    "parentId": 21
  },
  {
    "id": "4",
    "address": "არაყიშვილის ქ.",
    "coordinates": [44.767025, 41.70765069999999],
    "parentId": 47
  },
  {
    "id": "828",
    "address": "არბოშიკის ქ.",
    "coordinates": [44.8247762, 41.6865692],
    "parentId": 21
  },
  {
    "id": "427",
    "address": "არგვეთის ქ.",
    "coordinates": [44.8071917, 41.724247],
    "parentId": 41
  },
  {
    "id": "128",
    "address": "არდაზიანის ქ.",
    "coordinates": [44.7678977, 41.7357654],
    "parentId": 49
  },
  {
    "id": "683",
    "address": "არდონის ქ.",
    "parentId": 31
  },
  {
    "id": "5",
    "address": "არეშიძის ქ.",
    "parentId": 47
  },
  {
    "id": "213",
    "address": "არველაძის ქ.",
    "coordinates": [44.84210909999999, 41.6917037],
    "parentId": 10
  },
  {
    "id": "829",
    "address": "არმაზის ქ.",
    "coordinates": [44.8138976, 41.6933741],
    "parentId": 21
  },
  {
    "id": "960",
    "address": "არსენას ქ.",
    "coordinates": [44.7939272, 41.6984241],
    "parentId": 51
  },
  {
    "id": "1195",
    "address": "არტურ ლაისტის ქ.",
    "coordinates": [44.8396254, 41.675368],
    "parentId": 14
  },
  {
    "id": "1032",
    "address": "ასკანის ქ.",
    "coordinates": [44.8052688, 41.6889133],
    "parentId": 52
  },
  {
    "id": "428",
    "address": "ასკურავას ქ.",
    "coordinates": [44.7966738, 41.7266058],
    "parentId": 41
  },
  {
    "id": "1093",
    "address": "ასლანიდის ქ.",
    "coordinates": [44.7812706, 41.7187756],
    "parentId": 3
  },
  {
    "id": "429",
    "address": "ასურეთის ქ.",
    "coordinates": [44.8077017, 41.7397453],
    "parentId": 41
  },
  {
    "id": "430",
    "address": "ასხინის ქ.",
    "coordinates": [44.8147343, 41.716215],
    "parentId": 41
  },
  {
    "id": "1257",
    "address": "ატენის ქ.",
    "coordinates": [44.7737506, 41.71025239999999],
    "parentId": 47
  },
  {
    "id": "431",
    "address": "ატოცის ქ.",
    "coordinates": [44.8195893, 41.7169914],
    "parentId": 41
  },
  {
    "id": "214",
    "address": "აფანასიევის ქ.",
    "coordinates": [44.8440818, 41.6903207],
    "parentId": 10
  },
  {
    "id": "1148",
    "address": "აფაქიძის ქ.",
    "coordinates": [44.78037399999999, 41.7193508],
    "parentId": 3
  },
  {
    "id": "685",
    "address": "აფხაზეთის ქ.",
    "coordinates": [44.8135444, 41.7197675],
    "parentId": 31
  },
  {
    "id": "1409",
    "address": "აფხაიძის ქ.",
    "coordinates": [44.7628077, 41.83041009999999],
    "parentId": 49
  },
  {
    "id": "686",
    "address": "აღმაშენებლის გამზ.",
    "coordinates": [44.7956066, 41.71185879999999],
    "parentId": 31
  },
  {
    "id": "215",
    "address": "აწყურის ქ.",
    "coordinates": [44.8356734, 41.6892924],
    "parentId": 10
  },
  {
    "id": "432",
    "address": "აჭარის ქ.",
    "coordinates": [44.8098086, 41.7207722],
    "parentId": 41
  },
  {
    "id": "687",
    "address": "ახალუბნის ქ.",
    "coordinates": [44.816046, 41.7011527],
    "parentId": 22
  },
  {
    "id": "433",
    "address": "ახალქალაქის ქ.",
    "coordinates": [44.7955333, 41.7320153],
    "parentId": 41
  },
  {
    "id": "1094",
    "address": "ახალშენის ქ.",
    "parentId": 3
  },
  {
    "id": "688",
    "address": "ახალციხის ქ.",
    "coordinates": [44.8045064, 41.7118471],
    "parentId": 31
  },
  {
    "id": "830",
    "address": "ახმეტის ქ.",
    "coordinates": [44.82303719999999, 41.6913102],
    "parentId": 21
  },
  {
    "id": "1033",
    "address": "ახოსპირელის ქ.",
    "coordinates": [44.8038742, 41.6903848],
    "parentId": 52
  },
  {
    "id": "434",
    "address": "ახტალის ქ.",
    "coordinates": [44.8057598, 41.7360747],
    "parentId": 41
  },
  {
    "id": "689",
    "address": "ახუთის ქ.",
    "coordinates": [44.8175213, 41.7081715],
    "parentId": 31
  },
  {
    "id": "831",
    "address": "ახუნდოვის ქ.",
    "parentId": 21
  },
  {
    "id": "690",
    "address": "აჯამეთის ქ.",
    "coordinates": [44.8060207, 41.70723479999999],
    "parentId": 31
  },
  {
    "id": "1443",
    "address": "აჰმედ ჯავადის ქ.",
    "coordinates": [44.8418958, 41.6746929],
    "parentId": 10
  },
  {
    "id": "1237",
    "address": "ბ.კვერნაძის ქ.",
    "coordinates": [44.77875969999999, 41.7189494],
    "parentId": 3
  },
  {
    "id": "300",
    "address": "ბააზოვის ქ.",
    "coordinates": [44.812354, 41.6868503],
    "parentId": 14
  },
  {
    "id": "896",
    "address": "ბაბისხევის ქ.",
    "parentId": 22
  },
  {
    "id": "435",
    "address": "ბაგინეთის ქ.",
    "coordinates": [44.7906262, 41.7447227],
    "parentId": 41
  },
  {
    "id": "832",
    "address": "ბადიაურის ქ.",
    "coordinates": [44.8217578, 41.6910718],
    "parentId": 21
  },
  {
    "id": "6",
    "address": "ბაზალეთის ქ.",
    "coordinates": [44.77275789999999, 41.7079372],
    "parentId": 47
  },
  {
    "id": "631",
    "address": "ბათუმის ქ.",
    "coordinates": [44.79080159999999, 41.7267983],
    "parentId": 1
  },
  {
    "id": "1095",
    "address": "ბაკურიანის ქ.",
    "coordinates": [44.7694293, 41.7168262],
    "parentId": 3
  },
  {
    "id": "1096",
    "address": "ბაკურციხის ქ.",
    "coordinates": [44.7697858, 41.7175933],
    "parentId": 3
  },
  {
    "id": "1097",
    "address": "ბალანჩივაძის ქ.",
    "coordinates": [44.7737186, 41.7164489],
    "parentId": 3
  },
  {
    "id": "1034",
    "address": "ბამბის რიგი,",
    "coordinates": [44.8086298, 41.69055609999999],
    "parentId": 52
  },
  {
    "id": "691",
    "address": "ბარათაშვილის აღმ.",
    "coordinates": [44.8019963, 41.696624],
    "parentId": 31
  },
  {
    "id": "961",
    "address": "ბარათაშვილის ქ.",
    "coordinates": [44.80513149999999, 41.6965009],
    "parentId": 51
  },
  {
    "id": "1381",
    "address": "ბარათაშვილის ჩიხი",
    "coordinates": [44.7401637, 41.7208613],
    "parentId": 3
  },
  {
    "id": "906",
    "address": "ბარნოვის ქ.",
    "coordinates": [44.7823495, 41.70471130000001],
    "parentId": 23
  },
  {
    "id": "1487",
    "address": "ბაქარაშვილის ქ.",
    "parentId": 10
  },
  {
    "id": "692",
    "address": "ბაქოს ქ.",
    "coordinates": [44.7931275, 41.7181711],
    "parentId": 31
  },
  {
    "id": "632",
    "address": "ბაქრაძის ქ.",
    "coordinates": [44.7822301, 41.736558],
    "parentId": 1
  },
  {
    "id": "216",
    "address": "ბაღდადის ქ.",
    "coordinates": [44.7962936, 41.7091396],
    "parentId": 10
  },
  {
    "id": "1387",
    "address": "ბაღდავაძის ქ.",
    "coordinates": [44.8874545, 41.68196690000001],
    "parentId": 16
  },
  {
    "id": "633",
    "address": "ბაღის ქ.",
    "coordinates": [44.772082, 41.7433518],
    "parentId": 1
  },
  {
    "id": "833",
    "address": "ბაჩანას ქ.",
    "coordinates": [44.8135322, 41.6953804],
    "parentId": 21
  },
  {
    "id": "693",
    "address": "ბახვის შეს.",
    "coordinates": [44.8115145, 41.6979034],
    "parentId": 31
  },
  {
    "id": "436",
    "address": "ბახმაროს ქ.",
    "coordinates": [44.8080584, 41.733966],
    "parentId": 41
  },
  {
    "id": "1098",
    "address": "ბახტრიონის ქ.",
    "coordinates": [44.76629399999999, 41.7204071],
    "parentId": 3
  },
  {
    "id": "834",
    "address": "ბეთანიას ქ.",
    "coordinates": [44.8226872, 41.6976812],
    "parentId": 21
  },
  {
    "id": "694",
    "address": "ბეთანიის ქ.",
    "coordinates": [44.8226872, 41.6976812],
    "parentId": 31
  },
  {
    "id": "1035",
    "address": "ბეთლემის ქ.",
    "coordinates": [44.80765479999999, 41.689282],
    "parentId": 52
  },
  {
    "id": "695",
    "address": "ბენაშვილის ქ.",
    "coordinates": [44.8052636, 41.7116135],
    "parentId": 31
  },
  {
    "id": "437",
    "address": "ბენდელიანის გორა,",
    "coordinates": [44.8035228, 41.7384264],
    "parentId": 41
  },
  {
    "id": "1100",
    "address": "ბეჟანიშვილის ქ.",
    "coordinates": [44.7951934, 41.7474023],
    "parentId": 41
  },
  {
    "id": "1099",
    "address": "ბერბუკის ქ.",
    "coordinates": [44.7811526, 41.7179807],
    "parentId": 3
  },
  {
    "id": "1135",
    "address": "ბერი გაბრიელ სალოსის გამზ.",
    "coordinates": [44.86448679999999, 41.6726193],
    "parentId": 10
  },
  {
    "id": "1101",
    "address": "ბერიტაშვილის ქ.",
    "coordinates": [44.717709, 41.7446337],
    "parentId": 3
  },
  {
    "id": "962",
    "address": "ბერიძის ქ.",
    "coordinates": [44.7959751, 41.6942604],
    "parentId": 51
  },
  {
    "id": "7",
    "address": "ბერძენიშვილის ქ.",
    "coordinates": [44.7587863, 41.709457],
    "parentId": 47
  },
  {
    "id": "301",
    "address": "ბერძნის ჩიხი,",
    "coordinates": [44.8199874, 41.6831358],
    "parentId": 14
  },
  {
    "id": "963",
    "address": "ბესიკის ქ.",
    "coordinates": [44.7953019, 41.6981928],
    "parentId": 51
  },
  {
    "id": "1540",
    "address": "ბექა და ბუშქენ ოპიზრების ქ.",
    "coordinates": [44.81896560000001, 41.6848072],
    "parentId": 14
  },
  {
    "id": "696",
    "address": "ბეღლეთის ქ.",
    "coordinates": [44.8211296, 41.7011752],
    "parentId": 22
  },
  {
    "id": "697",
    "address": "ბზიფის ქ.",
    "coordinates": [44.822816, 41.6963273],
    "parentId": 22
  },
  {
    "id": "1036",
    "address": "ბნელი ჩიხი,",
    "parentId": 52
  },
  {
    "id": "577",
    "address": "ბოგვის ქ.",
    "coordinates": [44.7928115, 41.7591139],
    "parentId": 41
  },
  {
    "id": "699",
    "address": "ბოდავის II ქ.",
    "coordinates": [44.8139922, 41.7070777],
    "parentId": 31
  },
  {
    "id": "835",
    "address": "ბოდბის ქ.",
    "coordinates": [44.8237112, 41.6872418],
    "parentId": 21
  },
  {
    "id": "964",
    "address": "ბოლო აღმართის ქ.",
    "coordinates": [44.9878429, 41.7143195],
    "parentId": 51
  },
  {
    "id": "1322",
    "address": "ბოლქვაძის ქ.",
    "coordinates": [44.7749516, 41.7177801],
    "parentId": 3
  },
  {
    "id": "965",
    "address": "ბორბალოს ქ.",
    "coordinates": [44.7906071, 41.6996484],
    "parentId": 51
  },
  {
    "id": "836",
    "address": "ბოროდინის ქ.",
    "coordinates": [44.8160648, 41.6914334],
    "parentId": 21
  },
  {
    "id": "1037",
    "address": "ბოტანიკურის ქ.",
    "coordinates": [44.810349, 41.68803210000001],
    "parentId": 52
  },
  {
    "id": "966",
    "address": "ბოცვაძის ქ.",
    "coordinates": [44.7848961, 41.710392],
    "parentId": 51
  },
  {
    "id": "1102",
    "address": "ბოჭორიშვილის ქ.",
    "coordinates": [44.8063499, 41.70684989999999],
    "parentId": 3
  },
  {
    "id": "217",
    "address": "ბოჭორმის ქ.",
    "coordinates": [44.8285083, 41.6864014],
    "parentId": 10
  },
  {
    "id": "1103",
    "address": "ბროლოსანის ქ.",
    "coordinates": [44.7732536, 41.7234162],
    "parentId": 3
  },
  {
    "id": "967",
    "address": "ბროსეს ქ.",
    "coordinates": [44.7989497, 41.7019438],
    "parentId": 51
  },
  {
    "id": "438",
    "address": "ბუგეულის ქ.",
    "coordinates": [44.8134725, 41.7362928],
    "parentId": 41
  },
  {
    "id": "1104",
    "address": "ბუდაპეშტის I შეს.",
    "coordinates": [44.7664252, 41.7290154],
    "parentId": 3
  },
  {
    "id": "1105",
    "address": "ბუდაპეშტის II შეს.",
    "coordinates": [44.7598682, 41.73003749999999],
    "parentId": 3
  },
  {
    "id": "1106",
    "address": "ბუდაპეშტის ქ.",
    "coordinates": [44.7582127, 41.7303946],
    "parentId": 3
  },
  {
    "id": "1107",
    "address": "ბულაჩაურის ქ.",
    "coordinates": [44.7707859, 41.7263469],
    "parentId": 3
  },
  {
    "id": "8",
    "address": "ბურკიაშვილის ქ.",
    "coordinates": [44.7707939, 41.7050619],
    "parentId": 47
  },
  {
    "id": "118",
    "address": "ბურძგლას ქ.",
    "coordinates": [44.7607894, 41.7232365],
    "parentId": 3
  },
  {
    "id": "700",
    "address": "ბუხაიძის ქ.",
    "coordinates": [44.8106495, 41.7023242],
    "parentId": 31
  },
  {
    "id": "908",
    "address": "გ. ახვლედიანის ქ.",
    "coordinates": [44.789629, 41.7060737],
    "parentId": 23
  },
  {
    "id": "160",
    "address": "გ. ბარნაბიშვილი",
    "parentId": 5
  },
  {
    "id": "193",
    "address": "გ. ბერიაშვილის ქ.",
    "coordinates": [44.8895264, 41.6917531],
    "parentId": 9
  },
  {
    "id": "1108",
    "address": "გ. გაბაშვილის ქ.",
    "coordinates": [44.7448629, 41.72445279999999],
    "parentId": 3
  },
  {
    "id": "439",
    "address": "გ. ერისთავის ქ.",
    "coordinates": [44.804024, 41.712952],
    "parentId": 41
  },
  {
    "id": "1514",
    "address": "გ. ვოლსკის ქ.",
    "parentId": 14
  },
  {
    "id": "302",
    "address": "გ. ნიკოლაძის ქ.",
    "coordinates": [44.831521, 41.6766622],
    "parentId": 14
  },
  {
    "id": "701",
    "address": "გ.დოლიძის ქ.",
    "coordinates": [44.7749753, 41.717852],
    "parentId": 31
  },
  {
    "id": "440",
    "address": "გ.ზაზიაშვილის ქ.",
    "coordinates": [44.8030668, 41.71778219999999],
    "parentId": 31
  },
  {
    "id": "909",
    "address": "გ.იმედაშვილის ქ.",
    "coordinates": [44.7679, 41.7337053],
    "parentId": 23
  },
  {
    "id": "441",
    "address": "გ.სააკაძის ქ.",
    "coordinates": [44.8289099, 41.82045309999999],
    "parentId": 41
  },
  {
    "id": "1038",
    "address": "გ.ტაბიძის ქ.",
    "coordinates": [44.8012161, 41.6912471],
    "parentId": 52
  },
  {
    "id": "702",
    "address": "გ.წერეთლის ქ.",
    "coordinates": [44.8151878, 41.6954781],
    "parentId": 31
  },
  {
    "id": "9",
    "address": "გაბაშვილის ქ.",
    "coordinates": [44.7448629, 41.72445279999999],
    "parentId": 47
  },
  {
    "id": "1493",
    "address": "გაბესკირიას ქ.",
    "coordinates": [44.8135137, 41.69819200000001],
    "parentId": 21
  },
  {
    "id": "837",
    "address": "გაბრიელ ეპ. ქ.",
    "coordinates": [44.8089476, 41.6941753],
    "parentId": 21
  },
  {
    "id": "1109",
    "address": "გაგარინის ქ.",
    "coordinates": [44.7698799, 41.7354662],
    "parentId": 3
  },
  {
    "id": "1110",
    "address": "გაზაფხულის ქ.",
    "coordinates": [44.741659, 41.7317242],
    "parentId": 3
  },
  {
    "id": "703",
    "address": "გალავნის ქ.",
    "parentId": 31
  },
  {
    "id": "910",
    "address": "გალის ქ.",
    "coordinates": [44.7788344, 41.7043678],
    "parentId": 23
  },
  {
    "id": "704",
    "address": "გამცემლიძის ქ.",
    "coordinates": [44.8099172, 41.7004919],
    "parentId": 31
  },
  {
    "id": "705",
    "address": "განთიადის ქ.",
    "coordinates": [44.8229402, 41.6982674],
    "parentId": 31
  },
  {
    "id": "838",
    "address": "გარე კახეთის ქ.",
    "coordinates": [44.8364738, 41.68826869999999],
    "parentId": 10
  },
  {
    "id": "635",
    "address": "გაფრინდაულის ქ.",
    "coordinates": [44.7844966, 41.7282746],
    "parentId": 1
  },
  {
    "id": "1415",
    "address": "გახოკიძის ქ.",
    "coordinates": [44.769572, 41.7323383],
    "parentId": 3
  },
  {
    "id": "194",
    "address": "გახოკიძის ქ.",
    "coordinates": [44.8895893, 41.6968042],
    "parentId": 9
  },
  {
    "id": "1309",
    "address": "გეგეჭკორის ქ.",
    "coordinates": [44.7401231, 41.7215801],
    "parentId": 3
  },
  {
    "id": "442",
    "address": "გეგუთის ქ.",
    "coordinates": [44.8046936, 41.7409812],
    "parentId": 41
  },
  {
    "id": "839",
    "address": "გედევანიშვილის ქ.",
    "coordinates": [44.818849, 41.704527],
    "parentId": 21
  },
  {
    "id": "181",
    "address": "გეზათის ქ.",
    "coordinates": [44.8404595, 41.6966657],
    "parentId": 10
  },
  {
    "id": "840",
    "address": "გელათის ქ.",
    "coordinates": [44.8123209, 41.6937501],
    "parentId": 21
  },
  {
    "id": "48",
    "address": "გენერალ კვინიტაძის ქ.",
    "coordinates": [44.7887157, 41.7165149],
    "parentId": 1
  },
  {
    "id": "1039",
    "address": "გერგეთის ქ.",
    "coordinates": [44.79546819999999, 41.6911459],
    "parentId": 52
  },
  {
    "id": "636",
    "address": "გვეტაძის ქ.",
    "coordinates": [44.78432369999999, 41.729886],
    "parentId": 1
  },
  {
    "id": "195",
    "address": "გიორგაძის ქ.",
    "coordinates": [45.0211128, 41.558688],
    "parentId": 9
  },
  {
    "id": "1111",
    "address": "გმირთა მოედანი,",
    "coordinates": [44.7826587, 41.71324509999999],
    "parentId": 3
  },
  {
    "id": "911",
    "address": "გოგებაშვილის ქ.",
    "coordinates": [44.7829461, 41.7030093],
    "parentId": 23
  },
  {
    "id": "706",
    "address": "გოგიბერიძის ქ.",
    "coordinates": [44.805395, 41.7033886],
    "parentId": 31
  },
  {
    "id": "912",
    "address": "გოგლიძის ქ.",
    "parentId": 23
  },
  {
    "id": "637",
    "address": "გოგოლაურის ქ.",
    "coordinates": [44.7826298, 41.7332274],
    "parentId": 1
  },
  {
    "id": "1165",
    "address": "გოგოლის ქ.",
    "coordinates": [44.7988008, 41.7190145],
    "parentId": 31
  },
  {
    "id": "707",
    "address": "გოგჩის ქ.",
    "parentId": 52
  },
  {
    "id": "1088",
    "address": "გოთუას ქ.",
    "coordinates": [44.7730939, 41.7302213],
    "parentId": 3
  },
  {
    "id": "444",
    "address": "გომარეთის ქ.",
    "coordinates": [44.8080826, 41.7345225],
    "parentId": 41
  },
  {
    "id": "445",
    "address": "გომბორის ქ.",
    "coordinates": [44.8017875, 41.7314796],
    "parentId": 41
  },
  {
    "id": "1040",
    "address": "გომის ქ.",
    "coordinates": [44.806602, 41.689133],
    "parentId": 52
  },
  {
    "id": "841",
    "address": "გონაშვილის ქ.",
    "coordinates": [44.8151899, 41.6937633],
    "parentId": 21
  },
  {
    "id": "1041",
    "address": "გორგასლის I შეს.",
    "coordinates": [44.8259917, 41.6736775],
    "parentId": 14
  },
  {
    "id": "1471",
    "address": "გორგასლის II შესახვ.",
    "coordinates": [44.6926674, 41.6860087],
    "parentId": 14
  },
  {
    "id": "328",
    "address": "გორგასლის ქ.",
    "coordinates": [44.8228496, 41.6835825],
    "parentId": 14
  },
  {
    "id": "446",
    "address": "გორდის ქ.",
    "coordinates": [44.8233645, 41.7364459],
    "parentId": 41
  },
  {
    "id": "638",
    "address": "გორის ქ.",
    "coordinates": [44.7939351, 41.72754949999999],
    "parentId": 1
  },
  {
    "id": "708",
    "address": "გორკის ქ.",
    "coordinates": [44.8071626, 41.7049736],
    "parentId": 31
  },
  {
    "id": "709",
    "address": "გოცირიძის ქ.",
    "coordinates": [44.8055957, 41.70828119999999],
    "parentId": 31
  },
  {
    "id": "10",
    "address": "გრ. მუხაძის ქ.",
    "coordinates": [44.7560932, 41.7093378],
    "parentId": 47
  },
  {
    "id": "12",
    "address": "გრ.აბაშიძის (ატენის) ქ.",
    "coordinates": [44.7995762, 41.696309],
    "parentId": 47
  },
  {
    "id": "1042",
    "address": "გრ.ხანძთელის ქ.",
    "coordinates": [44.8059912, 41.6914782],
    "parentId": 52
  },
  {
    "id": "710",
    "address": "გრემის შეს.",
    "coordinates": [44.8106362, 41.6986501],
    "parentId": 31
  },
  {
    "id": "968",
    "address": "გრიბოედოვის ქ.",
    "coordinates": [44.79407339999999, 41.7006621],
    "parentId": 51
  },
  {
    "id": "303",
    "address": "გრიშაშვილის ქ.",
    "coordinates": [44.8164806, 41.6864675],
    "parentId": 14
  },
  {
    "id": "711",
    "address": "გროზნოს ქ.",
    "coordinates": [44.8047915, 41.7158161],
    "parentId": 31
  },
  {
    "id": "447",
    "address": "გრუზინსკის ქ.",
    "coordinates": [44.7989338, 41.7413171],
    "parentId": 41
  },
  {
    "id": "639",
    "address": "გუდაუთის ქ.",
    "coordinates": [44.7740766, 41.7391845],
    "parentId": 1
  },
  {
    "id": "913",
    "address": "გუდაურის ქ.",
    "coordinates": [44.7821773, 41.7058107],
    "parentId": 23
  },
  {
    "id": "969",
    "address": "გუდიაშვილის მოედ.",
    "coordinates": [44.8034138, 41.6908882],
    "parentId": 51
  },
  {
    "id": "970",
    "address": "გუდიაშვილის ქ.",
    "coordinates": [44.8011198, 41.6960655],
    "parentId": 51
  },
  {
    "id": "842",
    "address": "გუთნის ქ.",
    "coordinates": [44.8144287, 41.675949],
    "parentId": 21
  },
  {
    "id": "304",
    "address": "გულიას მოედ.",
    "coordinates": [44.8262553, 41.675778],
    "parentId": 14
  },
  {
    "id": "305",
    "address": "გულიას ქ.",
    "coordinates": [44.82751890000001, 41.6794734],
    "parentId": 14
  },
  {
    "id": "1255",
    "address": "გულრიფშის ქ.",
    "coordinates": [44.8039284, 41.7307347],
    "parentId": 41
  },
  {
    "id": "219",
    "address": "გულუას ქ.",
    "coordinates": [44.82751890000001, 41.6794734],
    "parentId": 10
  },
  {
    "id": "712",
    "address": "გუმბრის ქ.",
    "coordinates": [44.8162339, 41.6991018],
    "parentId": 21
  },
  {
    "id": "914",
    "address": "გუნიას ქ.",
    "coordinates": [44.7850293, 41.7018484],
    "parentId": 23
  },
  {
    "id": "1186",
    "address": "გურამიშვილის გამზ. (ნაძალადევი)",
    "coordinates": [44.7914853, 41.7676347],
    "parentId": 41
  },
  {
    "id": "448",
    "address": "გურგენიძის ქ.",
    "coordinates": [44.8022769, 41.7219674],
    "parentId": 41
  },
  {
    "id": "1112",
    "address": "გურიელის ქ.",
    "coordinates": [44.73809869999999, 41.7279173],
    "parentId": 3
  },
  {
    "id": "971",
    "address": "გურიის ქ.",
    "coordinates": [44.7889931, 41.7032958],
    "parentId": 51
  },
  {
    "id": "843",
    "address": "გურჯაანის ქ.",
    "coordinates": [44.8169285, 41.6934973],
    "parentId": 21
  },
  {
    "id": "844",
    "address": "გუჯარეთის ქ.",
    "coordinates": [44.8360983, 41.6919641],
    "parentId": 21
  },
  {
    "id": "713",
    "address": "დ. აბაშიძის ქ.",
    "coordinates": [44.79815139999999, 41.7072121],
    "parentId": 31
  },
  {
    "id": "220",
    "address": "დ. კაჭარავას ქ.",
    "coordinates": [44.8359143, 41.6830265],
    "parentId": 10
  },
  {
    "id": "714",
    "address": "დ. კლდიაშვილის ქ.",
    "coordinates": [44.7998294, 41.7140022],
    "parentId": 31
  },
  {
    "id": "915",
    "address": "დ.ბაქრაძის ქ.",
    "coordinates": [44.7800414, 41.736562],
    "parentId": 23
  },
  {
    "id": "715",
    "address": "დ.ბერიაშვილის ქ.",
    "coordinates": [44.8878585, 41.693656],
    "parentId": 31
  },
  {
    "id": "1113",
    "address": "დ.გამრეკელის ქ.",
    "coordinates": [44.76934079999999, 41.723636],
    "parentId": 3
  },
  {
    "id": "845",
    "address": "დ.მეგრელის ქ.",
    "coordinates": [44.8116737, 41.6926881],
    "parentId": 21
  },
  {
    "id": "449",
    "address": "დ.ჟღენტის ქ.",
    "coordinates": [44.8069641, 41.7330693],
    "parentId": 41
  },
  {
    "id": "1203",
    "address": "დ.ყიფიანის ქ.",
    "coordinates": [44.7933224, 41.69687],
    "parentId": 1
  },
  {
    "id": "450",
    "address": "დ.ჭიჭინაძის ქ.",
    "coordinates": [44.9169933, 41.666393],
    "parentId": 41
  },
  {
    "id": "1043",
    "address": "დაბახანის ქ.",
    "parentId": 52
  },
  {
    "id": "1114",
    "address": "დარასელიას ქ.",
    "coordinates": [44.7681847, 41.73216559999999],
    "parentId": 3
  },
  {
    "id": "11",
    "address": "დარიალის ქ.",
    "coordinates": [44.7551559, 41.7092638],
    "parentId": 47
  },
  {
    "id": "451",
    "address": "დარკვეთის ქ.",
    "coordinates": [44.8037079, 41.7401716],
    "parentId": 41
  },
  {
    "id": "716",
    "address": "დგებუაძის ქ.",
    "coordinates": [44.79082289999999, 41.7128204],
    "parentId": 31
  },
  {
    "id": "1157",
    "address": "დები იშხნელების ქ.",
    "coordinates": [44.7699287, 41.728866],
    "parentId": 3
  },
  {
    "id": "846",
    "address": "დედოფლისწყაროს ქ.",
    "coordinates": [44.821495, 41.69308669999999],
    "parentId": 21
  },
  {
    "id": "306",
    "address": "დეკაბრისტების ქ.",
    "coordinates": [44.8178974, 41.6851656],
    "parentId": 14
  },
  {
    "id": "1115",
    "address": "დელისის I ქ.",
    "coordinates": [44.7457132, 41.7295434],
    "parentId": 3
  },
  {
    "id": "1116",
    "address": "დელისის II ქ.",
    "coordinates": [44.7453459, 41.7299543],
    "parentId": 3
  },
  {
    "id": "1117",
    "address": "დელისის ქ.",
    "coordinates": [44.7477758, 41.7317012],
    "parentId": 3
  },
  {
    "id": "452",
    "address": "დეპოს ქ.",
    "coordinates": [44.7951181, 41.7358444],
    "parentId": 41
  },
  {
    "id": "307",
    "address": "დიდი ხეივნის ქ.",
    "coordinates": [44.83331949999999, 41.6795049],
    "parentId": 14
  },
  {
    "id": "453",
    "address": "დიდი ჯიხაიშის ქ.",
    "coordinates": [44.7979949, 41.741626],
    "parentId": 41
  },
  {
    "id": "640",
    "address": "დიდუბის ქ.",
    "coordinates": [44.7809654, 41.7522709],
    "parentId": 1
  },
  {
    "id": "717",
    "address": "დიდხევის აღმ.",
    "coordinates": [44.8044732, 41.7023297],
    "parentId": 31
  },
  {
    "id": "1537",
    "address": "დიმა ბათიაშვილის ქ.",
    "parentId": 44
  },
  {
    "id": "1044",
    "address": "დიუმას ქ.",
    "coordinates": [44.8031245, 41.6943864],
    "parentId": 52
  },
  {
    "id": "718",
    "address": "დიღომბარის ქ.",
    "coordinates": [44.8104257, 41.7109453],
    "parentId": 31
  },
  {
    "id": "719",
    "address": "დმანისის ქ.",
    "coordinates": [44.8157269, 41.6953509],
    "parentId": 21
  },
  {
    "id": "454",
    "address": "დობროლუბოვის ქ.",
    "parentId": 41
  },
  {
    "id": "271",
    "address": "დოდაშვილის ქ.",
    "coordinates": [44.84482879999999, 41.677735],
    "parentId": 10
  },
  {
    "id": "221",
    "address": "დოესის ქ.",
    "coordinates": [44.8356157, 41.6900025],
    "parentId": 10
  },
  {
    "id": "222",
    "address": "დოლაბაურის I ქ.",
    "coordinates": [44.8325403, 41.684534],
    "parentId": 10
  },
  {
    "id": "224",
    "address": "დოლაბაურის III ქ.",
    "coordinates": [44.8356935, 41.6846068],
    "parentId": 10
  },
  {
    "id": "225",
    "address": "დოლაბაურის ხევი,",
    "coordinates": [44.8380831, 41.6829184],
    "parentId": 10
  },
  {
    "id": "1136",
    "address": "დოლიძის ქ.",
    "coordinates": [44.7706671, 41.7161465],
    "parentId": 3
  },
  {
    "id": "1377",
    "address": "დომინიკა ერისთავის ქ.",
    "parentId": 22
  },
  {
    "id": "1483",
    "address": "დონდუას ქ.",
    "coordinates": [44.8047218, 41.71813059999999],
    "parentId": 31
  },
  {
    "id": "226",
    "address": "დურმიშიძის ქ.",
    "coordinates": [44.8467359, 41.6907964],
    "parentId": 10
  },
  {
    "id": "1045",
    "address": "დუტუ მეგრელის ქ.",
    "coordinates": [44.811974, 41.6922431],
    "parentId": 52
  },
  {
    "id": "847",
    "address": "დუშეთის ქ.",
    "coordinates": [44.81376480000001, 41.6931368],
    "parentId": 21
  },
  {
    "id": "1141",
    "address": "ე. ამაშუკელის ქ.",
    "coordinates": [44.73691669999999, 41.7323756],
    "parentId": 3
  },
  {
    "id": "13",
    "address": "ე. თაყაიშვილის ქ.",
    "coordinates": [44.8754763, 41.707923],
    "parentId": 47
  },
  {
    "id": "1184",
    "address": "ე.ახვლედიანის ქ.",
    "coordinates": [44.9248284, 41.6903818],
    "parentId": 31
  },
  {
    "id": "972",
    "address": "ე.გაბაშვილის ქ.",
    "coordinates": [44.4210451, 41.9249318],
    "parentId": 51
  },
  {
    "id": "1279",
    "address": "ე.მაღალაშვილის ქ.",
    "coordinates": [44.7408067, 41.721504],
    "parentId": 3
  },
  {
    "id": "916",
    "address": "ე.ტატიშვილის ქ.",
    "coordinates": [44.7837596, 41.7059759],
    "parentId": 23
  },
  {
    "id": "129",
    "address": "ე.ჩერქეზიშვილის ქ.",
    "coordinates": [44.7653724, 41.7351209],
    "parentId": 49
  },
  {
    "id": "1450",
    "address": "ეგნატე და ვახტანგ ფიფიების ქუჩა",
    "coordinates": [44.792354, 41.7252021],
    "parentId": 1
  },
  {
    "id": "641",
    "address": "ევდოშვილის ქ.",
    "coordinates": [44.7865906, 41.72849],
    "parentId": 1
  },
  {
    "id": "917",
    "address": "ეკალაძის ქ.",
    "coordinates": [44.7900082, 41.7049603],
    "parentId": 23
  },
  {
    "id": "223",
    "address": "ეკატერინე ფორაქიშვილ-სარაჯიშვილის ქ.",
    "parentId": 10
  },
  {
    "id": "199",
    "address": "ელდარის ქ.",
    "coordinates": [44.8748267, 41.687131],
    "parentId": 9
  },
  {
    "id": "455",
    "address": "ენისელის ქ.",
    "coordinates": [44.8077674, 41.7320605],
    "parentId": 41
  },
  {
    "id": "1444",
    "address": "ერევნის ქ.",
    "coordinates": [44.812016, 41.696864],
    "parentId": 21
  },
  {
    "id": "1046",
    "address": "ერეკლე II-ის ქ.",
    "coordinates": [44.8067857, 41.6929986],
    "parentId": 52
  },
  {
    "id": "918",
    "address": "ერისთავ-ხოშტარიას ქ.",
    "coordinates": [44.7853846, 41.7029003],
    "parentId": 23
  },
  {
    "id": "308",
    "address": "ეფრემ მცირის ქ.",
    "coordinates": [44.8204717, 41.6841912],
    "parentId": 14
  },
  {
    "id": "274",
    "address": "ექიმის ქ.",
    "coordinates": [44.8418795, 41.6787718],
    "parentId": 10
  },
  {
    "id": "1122",
    "address": "ვ. კიკვიძის ქ.",
    "coordinates": [44.8052888, 41.7148219],
    "parentId": 31
  },
  {
    "id": "973",
    "address": "ვ.აბაშიძის ქ.",
    "coordinates": [44.75390549999999, 41.673447],
    "parentId": 51
  },
  {
    "id": "642",
    "address": "ვ.ბაგრატიონის ქ.",
    "coordinates": [44.787861, 41.7274598],
    "parentId": 1
  },
  {
    "id": "974",
    "address": "ვ.ვეკუას ქ.",
    "coordinates": [44.8037818, 41.6976658],
    "parentId": 51
  },
  {
    "id": "1299",
    "address": "ვ.ორბელიანის ქ.",
    "parentId": 51
  },
  {
    "id": "975",
    "address": "ვ.სარაჯიშვილის ქ.",
    "coordinates": [44.7908051, 41.7017745],
    "parentId": 51
  },
  {
    "id": "1118",
    "address": "ვ.ჩიქოვანის ქ.",
    "coordinates": [44.7730577, 41.7149716],
    "parentId": 3
  },
  {
    "id": "130",
    "address": "ვაზისუბნის ქ.",
    "coordinates": [44.7602065, 41.7331174],
    "parentId": 49
  },
  {
    "id": "643",
    "address": "ვანის ქ.",
    "coordinates": [44.7851132, 41.7345109],
    "parentId": 1
  },
  {
    "id": "2532",
    "address": "ვანლერ დაისელის ქ.",
    "parentId": 10
  },
  {
    "id": "1402",
    "address": "ვაჟა ივერიელის ქ.",
    "coordinates": [44.8276131, 41.68820059999999],
    "parentId": 21
  },
  {
    "id": "1119",
    "address": "ვაჟა ფშაველას I ჩიხი,",
    "coordinates": [44.7036642, 41.65556979999999],
    "parentId": 3
  },
  {
    "id": "1120",
    "address": "ვაჟა ფშაველას III შეს.",
    "coordinates": [44.7377011, 41.725872],
    "parentId": 3
  },
  {
    "id": "1086",
    "address": "ვაჟა-ფშაველას გამზ.",
    "coordinates": [44.7496345, 41.7259183],
    "parentId": 3
  },
  {
    "id": "14",
    "address": "ვარაზისხევის ქ.",
    "coordinates": [44.7800368, 41.7105823],
    "parentId": 47
  },
  {
    "id": "1228",
    "address": "ვარკეთილის მეურნეობა",
    "coordinates": [44.8778629, 41.692042],
    "parentId": 9
  },
  {
    "id": "721",
    "address": "ვარციხის ქ.",
    "parentId": 31
  },
  {
    "id": "1539",
    "address": "ვასილ თამარაშვილის ქ.",
    "coordinates": [44.8081778, 41.7307654],
    "parentId": 41
  },
  {
    "id": "919",
    "address": "ვაშლოვანის ქ.",
    "coordinates": [44.78872459999999, 41.7060299],
    "parentId": 23
  },
  {
    "id": "976",
    "address": "ვაჩნაძის ქ.",
    "coordinates": [44.80176489999999, 41.696305],
    "parentId": 51
  },
  {
    "id": "848",
    "address": "ვახტანგ VI-ის ქ.",
    "coordinates": [44.7514853, 41.6607677],
    "parentId": 21
  },
  {
    "id": "1316",
    "address": "ვეზიროვის ქ.",
    "parentId": 14
  },
  {
    "id": "920",
    "address": "ვერის შეს.",
    "parentId": 23
  },
  {
    "id": "1047",
    "address": "ვერცხლის ქ.",
    "coordinates": [44.8040432, 41.6949652],
    "parentId": 52
  },
  {
    "id": "722",
    "address": "ვერჰარნის ქ.",
    "coordinates": [44.807294, 41.7088242],
    "parentId": 31
  },
  {
    "id": "456",
    "address": "ვეშაპურის ქ.",
    "coordinates": [44.8000574, 41.7212968],
    "parentId": 41
  },
  {
    "id": "723",
    "address": "ვეძათხევის ქ.",
    "coordinates": [44.8078305, 41.7058727],
    "parentId": 31
  },
  {
    "id": "1198",
    "address": "ვეძინის ქ.",
    "coordinates": [44.7929587, 41.6979335],
    "parentId": 51
  },
  {
    "id": "977",
    "address": "ვეჯინის ქ.",
    "parentId": 51
  },
  {
    "id": "724",
    "address": "ვირსალაძის ქ.",
    "coordinates": [44.80007620000001, 41.70145309999999],
    "parentId": 51
  },
  {
    "id": "227",
    "address": "ვიქ.ნანეიშვილის ქ.",
    "parentId": 10
  },
  {
    "id": "1236",
    "address": "ვიქტორ ჯორბენაძის ქ.",
    "coordinates": [44.8148486, 41.6900978],
    "parentId": 21
  },
  {
    "id": "644",
    "address": "ვორონინის ქ.",
    "coordinates": [44.7923487, 41.7252095],
    "parentId": 1
  },
  {
    "id": "228",
    "address": "ზ. ანჯაფარიძის ქ.",
    "coordinates": [44.8358113, 41.6860173],
    "parentId": 10
  },
  {
    "id": "67",
    "address": "ზ. ბენდელიანის ქ.",
    "coordinates": [44.8023746, 41.7382951],
    "parentId": 3
  },
  {
    "id": "1505",
    "address": "ზ. მხარგრძელის ქ.",
    "coordinates": [44.8659526, 41.6921872],
    "parentId": 9
  },
  {
    "id": "978",
    "address": "ზ. ქიქოძის ქ.",
    "parentId": 51
  },
  {
    "id": "979",
    "address": "ზ.ბოცვაძის ქ.",
    "coordinates": [44.7852667, 41.71049439999999],
    "parentId": 51
  },
  {
    "id": "725",
    "address": "ზ.ჭავჭავაძის ქ.",
    "coordinates": [44.797076, 41.7117616],
    "parentId": 31
  },
  {
    "id": "980",
    "address": "ზ.ჭიჭინაძის ქ.",
    "coordinates": [44.7978209, 41.6971234],
    "parentId": 51
  },
  {
    "id": "726",
    "address": "ზაარბრიუკენის მოედ.",
    "coordinates": [44.804324, 41.70276030000001],
    "parentId": 31
  },
  {
    "id": "727",
    "address": "ზაარბრიუკენის ქ.",
    "coordinates": [44.8039788, 41.7019458],
    "parentId": 31
  },
  {
    "id": "2530",
    "address": "ზალდასტანიშვილების ქ.",
    "coordinates": [44.7891711, 41.7018023],
    "parentId": 3
  },
  {
    "id": "457",
    "address": "ზალდასტანიშვილის ქ.",
    "coordinates": [44.7891711, 41.7018023],
    "parentId": 51
  },
  {
    "id": "921",
    "address": "ზანდუკელის ქ.",
    "coordinates": [44.7871409, 41.7042365],
    "parentId": 23
  },
  {
    "id": "458",
    "address": "ზაქარიას ქ.",
    "coordinates": [44.7658899, 41.7087526],
    "parentId": 41
  },
  {
    "id": "68",
    "address": "ზაქარიაძის ქ.",
    "coordinates": [44.7470789, 41.72770149999999],
    "parentId": 3
  },
  {
    "id": "849",
    "address": "ზახაროვის ქ.",
    "parentId": 21
  },
  {
    "id": "459",
    "address": "ზედაზნის ქ.",
    "coordinates": [44.7974006, 41.7443231],
    "parentId": 41
  },
  {
    "id": "460",
    "address": "ზედამზის ქ.",
    "coordinates": [44.81801220000001, 41.7347116],
    "parentId": 41
  },
  {
    "id": "461",
    "address": "ზედაუბნის ქ.",
    "parentId": 41
  },
  {
    "id": "1201",
    "address": "ზედგენიძის ქ.",
    "coordinates": [44.7922156, 41.6982333],
    "parentId": 51
  },
  {
    "id": "462",
    "address": "ზეინკლის ქ.",
    "parentId": 41
  },
  {
    "id": "463",
    "address": "ზეკარის ქ.",
    "coordinates": [44.8071371, 41.73933299999999],
    "parentId": 41
  },
  {
    "id": "15",
    "address": "ზემო ვაკის ქ.",
    "parentId": 47
  },
  {
    "id": "131",
    "address": "ზემო ვეძისის I ჩიხი",
    "coordinates": [44.7590329, 41.7358245],
    "parentId": 49
  },
  {
    "id": "132",
    "address": "ზემო ვეძისის II ჩიხი",
    "coordinates": [44.7590329, 41.7358245],
    "parentId": 49
  },
  {
    "id": "133",
    "address": "ზემო ვეძისის ქ.",
    "coordinates": [44.7612216, 41.7358205],
    "parentId": 49
  },
  {
    "id": "464",
    "address": "ზესტაფონის ქ.",
    "coordinates": [44.7885871, 41.74264220000001],
    "parentId": 41
  },
  {
    "id": "329",
    "address": "ზვიად გამსახურდიას ქ.",
    "coordinates": [42.6738542, 42.2618214],
    "parentId": 14
  },
  {
    "id": "465",
    "address": "ზიარის ქ.",
    "coordinates": [44.8062667, 41.7333746],
    "parentId": 41
  },
  {
    "id": "229",
    "address": "ზინდისის ქ.",
    "coordinates": [44.8366616, 41.6895525],
    "parentId": 10
  },
  {
    "id": "1320",
    "address": "ზიჩის ქ.",
    "coordinates": [44.7955889, 41.69737569999999],
    "parentId": 51
  },
  {
    "id": "134",
    "address": "ზოვრეთის ქ.",
    "coordinates": [44.7648722, 41.7328381],
    "parentId": 49
  },
  {
    "id": "645",
    "address": "ზუგდიდის ქ.",
    "coordinates": [44.7894504, 41.7295287],
    "parentId": 1
  },
  {
    "id": "1532",
    "address": "ზურა საკანდელიძის ქ.",
    "coordinates": [44.7261974, 41.71053819999999],
    "parentId": 44
  },
  {
    "id": "69",
    "address": "ზურაბ ჟვანიას მოედ.",
    "coordinates": [44.7675997, 41.7318366],
    "parentId": 3
  },
  {
    "id": "981",
    "address": "ზურაბ ჟვანიას ქ.",
    "coordinates": [44.827096, 41.7151377],
    "parentId": 51
  },
  {
    "id": "1178",
    "address": "ზურაბ ჩაჩუას ქ.",
    "coordinates": [44.869241, 41.6872622],
    "parentId": 9
  },
  {
    "id": "850",
    "address": "ზურაბიშვილის ქ.",
    "coordinates": [44.82934849999999, 41.6917688],
    "parentId": 10
  },
  {
    "id": "70",
    "address": "თ. ნადარეიშვილის ქ.",
    "coordinates": [44.8625337, 41.6794461],
    "parentId": 3
  },
  {
    "id": "71",
    "address": "თ.ბუაჩიძის ქ.",
    "coordinates": [44.7326166, 41.7270612],
    "parentId": 3
  },
  {
    "id": "1412",
    "address": "თ.ერისთავის ქ. (დიდუბე)",
    "coordinates": [44.7839639, 41.7503123],
    "parentId": 1
  },
  {
    "id": "1398",
    "address": "თ.ჟორდაინას ქ.",
    "parentId": 51
  },
  {
    "id": "1451",
    "address": "თ.ფიფიას ქ.",
    "coordinates": [44.7914204, 41.7315441],
    "parentId": 1
  },
  {
    "id": "982",
    "address": "თაბუკაშვილის ქ.",
    "coordinates": [44.7991067, 41.69983],
    "parentId": 51
  },
  {
    "id": "72",
    "address": "თავაძის ქ.",
    "coordinates": [44.7441165, 41.726999],
    "parentId": 3
  },
  {
    "id": "983",
    "address": "თავისუფლების მოედანი,",
    "coordinates": [44.8015112, 41.6933521],
    "parentId": 51
  },
  {
    "id": "1290",
    "address": "თავხელიძის ქ.",
    "coordinates": [44.7329271, 41.7227262],
    "parentId": 3
  },
  {
    "id": "728",
    "address": "თამარ მეფის გამზ.",
    "coordinates": [44.7935321, 41.71921649999999],
    "parentId": 31
  },
  {
    "id": "16",
    "address": "თამარაშვილის ქ. (ვაკე)",
    "coordinates": [44.7438276, 41.7239543],
    "parentId": 47
  },
  {
    "id": "1245",
    "address": "თამარაშვილის ქ. (საბურთალო)",
    "coordinates": [44.7438276, 41.7239543],
    "parentId": 3
  },
  {
    "id": "922",
    "address": "თარხნიშვილის ქ.",
    "coordinates": [44.7832292, 41.70632519999999],
    "parentId": 23
  },
  {
    "id": "1156",
    "address": "თაქთაქიშვილის ქ.",
    "coordinates": [44.7646952, 41.7088683],
    "parentId": 47
  },
  {
    "id": "1140",
    "address": "თბილისის ზღვის ქალაქი",
    "coordinates": [44.8600091, 41.70865939999999],
    "parentId": 9
  },
  {
    "id": "1002",
    "address": "თბილისის ქ.",
    "parentId": 51
  },
  {
    "id": "646",
    "address": "თევდორე მღვდლის ქ.",
    "coordinates": [44.7924672, 41.726695],
    "parentId": 1
  },
  {
    "id": "466",
    "address": "თეთნულდის ქ.",
    "coordinates": [44.8073788, 41.7153517],
    "parentId": 31
  },
  {
    "id": "1458",
    "address": "თეკლა ბატონიშვილის ქ.",
    "coordinates": [44.9066594, 41.6567875],
    "parentId": 16
  },
  {
    "id": "851",
    "address": "თელავის ქ.",
    "coordinates": [44.8246157, 41.6898981],
    "parentId": 21
  },
  {
    "id": "309",
    "address": "თელეთის ქ.",
    "coordinates": [44.8168078, 41.685333],
    "parentId": 14
  },
  {
    "id": "923",
    "address": "თერგის ქ.",
    "coordinates": [44.778353, 41.7043519],
    "parentId": 23
  },
  {
    "id": "200",
    "address": "თვალჭრელიძის ქ.",
    "coordinates": [44.8983309, 41.701362],
    "parentId": 9
  },
  {
    "id": "596",
    "address": "თმოგვის ქ.",
    "coordinates": [44.7975603, 41.7503186],
    "parentId": 41
  },
  {
    "id": "729",
    "address": "თოიძის ქ.",
    "coordinates": [44.8093647, 41.7015913],
    "parentId": 31
  },
  {
    "id": "467",
    "address": "თორდიას ქ.",
    "parentId": 41
  },
  {
    "id": "201",
    "address": "თრიალეთის ქ.",
    "coordinates": [44.8784359, 41.6892541],
    "parentId": 9
  },
  {
    "id": "1048",
    "address": "თუმანიანის ქ.",
    "coordinates": [44.8074469, 41.6897707],
    "parentId": 52
  },
  {
    "id": "1403",
    "address": "თუმანიშვილის ქ.",
    "coordinates": [44.7818864, 41.7104578],
    "parentId": 23
  },
  {
    "id": "924",
    "address": "ი. კერესელიძის ქ.",
    "parentId": 23
  },
  {
    "id": "18",
    "address": "ი.აბაშიძის ქ.",
    "coordinates": [44.7637655, 41.7078618],
    "parentId": 47
  },
  {
    "id": "1317",
    "address": "ი.გამრეკელის ქ.",
    "coordinates": [44.7386938, 41.7292231],
    "parentId": 3
  },
  {
    "id": "925",
    "address": "ი.ნიკოლაძის ქ.",
    "coordinates": [44.7826763, 41.7101376],
    "parentId": 23
  },
  {
    "id": "19",
    "address": "ი.ჭავჭავაძის გამზ.",
    "coordinates": [44.758644, 41.7109105],
    "parentId": 47
  },
  {
    "id": "730",
    "address": "ი.ჯავახიშვილის ქ.",
    "coordinates": [44.80206880000001, 41.7090253],
    "parentId": 31
  },
  {
    "id": "230",
    "address": "ი.ჯანელიძის ქ.",
    "coordinates": [44.7984937, 41.7323287],
    "parentId": 10
  },
  {
    "id": "231",
    "address": "იალბუზის ქ.",
    "coordinates": [44.82480349999999, 41.6842245],
    "parentId": 10
  },
  {
    "id": "1558",
    "address": "იალნოს ქ.",
    "coordinates": [45.0089028, 41.721798],
    "parentId": 16
  },
  {
    "id": "647",
    "address": "იამანიძის ქ.",
    "coordinates": [44.7871735, 41.725072],
    "parentId": 1
  },
  {
    "id": "1049",
    "address": "იაშვილის ქ.",
    "coordinates": [44.7971981, 41.6916081],
    "parentId": 52
  },
  {
    "id": "1050",
    "address": "იეთიმ გურჯის ქ.",
    "coordinates": [44.8048814, 41.6950973],
    "parentId": 52
  },
  {
    "id": "1051",
    "address": "იერუსალიმის ქ.",
    "coordinates": [44.8061785, 41.6904405],
    "parentId": 52
  },
  {
    "id": "1052",
    "address": "ივერიის ქ.",
    "coordinates": [44.8044871, 41.6929066],
    "parentId": 52
  },
  {
    "id": "852",
    "address": "იზაშვილის ქ.",
    "coordinates": [44.8192873, 41.6910985],
    "parentId": 21
  },
  {
    "id": "1550",
    "address": "ილია ოდიშელიძის ქ.",
    "coordinates": [44.7659558, 41.73537109999999],
    "parentId": 49
  },
  {
    "id": "469",
    "address": "ილურიძის ქ.",
    "coordinates": [44.7992742, 41.7465097],
    "parentId": 41
  },
  {
    "id": "135",
    "address": "იმედაშვილის ქ.",
    "coordinates": [44.7680592, 41.73345640000001],
    "parentId": 49
  },
  {
    "id": "1254",
    "address": "იმედაძის ქ.",
    "parentId": 44
  },
  {
    "id": "470",
    "address": "იმერეთის ქ.",
    "coordinates": [44.7969289, 41.7420051],
    "parentId": 41
  },
  {
    "id": "471",
    "address": "ინანიშვილის ქ.",
    "coordinates": [44.8064738, 41.7275717],
    "parentId": 41
  },
  {
    "id": "984",
    "address": "ინგოროყვას ქ.",
    "coordinates": [44.7971046, 41.69429299999999],
    "parentId": 51
  },
  {
    "id": "73",
    "address": "იონა ვაკელის ქ.",
    "coordinates": [44.7589418, 41.7277878],
    "parentId": 3
  },
  {
    "id": "853",
    "address": "იორის ქ.",
    "coordinates": [44.8118488, 41.6940022],
    "parentId": 21
  },
  {
    "id": "74",
    "address": "იოსებიძის ქ.",
    "coordinates": [44.77139529999999, 41.7267829],
    "parentId": 3
  },
  {
    "id": "1345",
    "address": "იოსელიანის I შესახვ.",
    "coordinates": [44.703253, 41.7198349],
    "parentId": 41
  },
  {
    "id": "1430",
    "address": "იოსელიანის ქ.",
    "coordinates": [44.7729823, 41.7157747],
    "parentId": 41
  },
  {
    "id": "854",
    "address": "ირბახის ქ.",
    "coordinates": [44.8183742, 41.6928744],
    "parentId": 21
  },
  {
    "id": "1053",
    "address": "ირგვლივის შეს.",
    "coordinates": [44.809863, 41.6888082],
    "parentId": 52
  },
  {
    "id": "136",
    "address": "ისაკაძის ქ.",
    "coordinates": [44.76685699999999, 41.7344004],
    "parentId": 49
  },
  {
    "id": "855",
    "address": "ისნის ქ.",
    "coordinates": [44.8408914, 41.6865501],
    "parentId": 21
  },
  {
    "id": "232",
    "address": "ისნის ჩიხი,",
    "coordinates": [44.8408914, 41.6865501],
    "parentId": 10
  },
  {
    "id": "1274",
    "address": "იუნკერთა ქ.",
    "coordinates": [44.8391399, 41.6794238],
    "parentId": 10
  },
  {
    "id": "76",
    "address": "იყალთოს გორა",
    "coordinates": [44.7717053, 41.7189792],
    "parentId": 3
  },
  {
    "id": "1400",
    "address": "იყალთოს ქუჩა",
    "coordinates": [44.773466, 41.7201136],
    "parentId": 3
  },
  {
    "id": "1303",
    "address": "კ. ერისთავის ქ.",
    "parentId": 21
  },
  {
    "id": "20",
    "address": "კ. კლდიაშვილის ქ.",
    "coordinates": [44.9912945, 41.55840999999999],
    "parentId": 47
  },
  {
    "id": "1411",
    "address": "კ. ქუთათელაძის ქ.",
    "coordinates": [44.7434311, 41.7227708],
    "parentId": 3
  },
  {
    "id": "731",
    "address": "კ.აბაშიძის ქ.",
    "parentId": 31
  },
  {
    "id": "233",
    "address": "კ.ბაქრაძის ქ.",
    "coordinates": [44.7801131, 41.7367323],
    "parentId": 10
  },
  {
    "id": "985",
    "address": "კ.მესხის ქ.",
    "parentId": 51
  },
  {
    "id": "1054",
    "address": "კ.ცინცაძის ქ.",
    "coordinates": [44.7716783, 41.7223583],
    "parentId": 52
  },
  {
    "id": "472",
    "address": "კავთისხევის ქ.",
    "coordinates": [44.79548260000001, 41.7352596],
    "parentId": 41
  },
  {
    "id": "21",
    "address": "კავსაძის ქ.",
    "coordinates": [44.7616643, 41.70915060000001],
    "parentId": 47
  },
  {
    "id": "202",
    "address": "კაიროს ქ.",
    "coordinates": [44.8730031, 41.6811253],
    "parentId": 16
  },
  {
    "id": "732",
    "address": "კაიშაურის ქ.",
    "coordinates": [44.82155119999999, 41.70080129999999],
    "parentId": 31
  },
  {
    "id": "1261",
    "address": "კაკაბეთის ქ.",
    "coordinates": [44.8485035, 41.6919221],
    "parentId": 10
  },
  {
    "id": "1424",
    "address": "კაკლების ქ.",
    "coordinates": [44.7130508, 41.7072854],
    "parentId": 44
  },
  {
    "id": "733",
    "address": "კალანდარიშვილი ქ.",
    "parentId": 31
  },
  {
    "id": "330",
    "address": "კალანდაძის ქ.",
    "coordinates": [44.8216052, 41.6808972],
    "parentId": 14
  },
  {
    "id": "473",
    "address": "კალუჟნის ქ.",
    "parentId": 41
  },
  {
    "id": "1281",
    "address": "კამანის ქ.",
    "coordinates": [44.74412419999999, 41.7307593],
    "parentId": 3
  },
  {
    "id": "77",
    "address": "კანდელაკის ქ.",
    "coordinates": [44.7635872, 41.7306636],
    "parentId": 3
  },
  {
    "id": "668",
    "address": "კარალეთის ქ.",
    "coordinates": [44.827096, 41.7151377],
    "parentId": 1
  },
  {
    "id": "735",
    "address": "კარგარეთელის ქ.",
    "coordinates": [44.7945447, 41.7156713],
    "parentId": 31
  },
  {
    "id": "1149",
    "address": "კარტოზიას ქ.",
    "coordinates": [44.750846, 41.7230638],
    "parentId": 3
  },
  {
    "id": "856",
    "address": "კასპის ქ.",
    "coordinates": [44.8304429, 41.6895232],
    "parentId": 21
  },
  {
    "id": "474",
    "address": "კაჭრეთის ქ.",
    "coordinates": [44.8102592, 41.7307874],
    "parentId": 41
  },
  {
    "id": "1162",
    "address": "კახეთის გზატკეცილი (ისანი)",
    "coordinates": [44.9273202, 41.6888676],
    "parentId": 10
  },
  {
    "id": "1164",
    "address": "კახეთის გზატკეცილი (სამგორი)",
    "coordinates": [44.8546147, 41.6871877],
    "parentId": 16
  },
  {
    "id": "475",
    "address": "კახიანის ქ.",
    "coordinates": [44.8098555, 41.7287887],
    "parentId": 41
  },
  {
    "id": "740",
    "address": "კახიძის ქ.",
    "coordinates": [44.7941066, 41.712267],
    "parentId": 31
  },
  {
    "id": "648",
    "address": "კედიას ქ.",
    "coordinates": [44.7873491, 41.7322076],
    "parentId": 1
  },
  {
    "id": "22",
    "address": "კეკელიძის ქ.",
    "coordinates": [44.77792729999999, 41.7068531],
    "parentId": 47
  },
  {
    "id": "476",
    "address": "კელაპტრიშვილის ქ.",
    "coordinates": [44.8103973, 41.7266258],
    "parentId": 41
  },
  {
    "id": "736",
    "address": "კვალითის ქ.",
    "coordinates": [44.8174713, 41.7009502],
    "parentId": 31
  },
  {
    "id": "986",
    "address": "კვალის ქ.",
    "coordinates": [44.79408859999999, 41.7032376],
    "parentId": 51
  },
  {
    "id": "1262",
    "address": "კვირიკაშვილის ქ.",
    "coordinates": [44.9089591, 41.6587456],
    "parentId": 16
  },
  {
    "id": "737",
    "address": "კიევის ქ.",
    "coordinates": [44.801674, 41.7066243],
    "parentId": 31
  },
  {
    "id": "738",
    "address": "კიკეთის ქ.",
    "coordinates": [44.8238137, 41.7008143],
    "parentId": 22
  },
  {
    "id": "477",
    "address": "კისისხევის ქ.",
    "coordinates": [44.804648, 41.727995],
    "parentId": 41
  },
  {
    "id": "478",
    "address": "კიშინოვის ქ.",
    "parentId": 41
  },
  {
    "id": "479",
    "address": "კლდეკარის ქ.",
    "coordinates": [44.8252849, 41.7346025],
    "parentId": 41
  },
  {
    "id": "480",
    "address": "კნოლევის ქ.",
    "coordinates": [44.7936498, 41.7505539],
    "parentId": 41
  },
  {
    "id": "926",
    "address": "კობახიძის ქ.",
    "coordinates": [44.7893909, 41.7053922],
    "parentId": 23
  },
  {
    "id": "481",
    "address": "კოდალოს ქ.",
    "coordinates": [44.81038789999999, 41.7325099],
    "parentId": 41
  },
  {
    "id": "310",
    "address": "კოდის შეს.",
    "parentId": 14
  },
  {
    "id": "78",
    "address": "კოდორის ქ.",
    "coordinates": [44.9159074, 41.6254368],
    "parentId": 3
  },
  {
    "id": "482",
    "address": "კოკინაკის ქ.",
    "coordinates": [44.7996065, 41.7446932],
    "parentId": 41
  },
  {
    "id": "483",
    "address": "კონდოლის ქ.",
    "coordinates": [44.7647143, 41.7259509],
    "parentId": 41
  },
  {
    "id": "1334",
    "address": "კონსკაიას ქ.",
    "parentId": 41
  },
  {
    "id": "739",
    "address": "კონსტიტუციის ქ.",
    "coordinates": [44.798887, 41.7170541],
    "parentId": 31
  },
  {
    "id": "341",
    "address": "კოპცოვის ქ.",
    "coordinates": [44.8523954, 41.6917138],
    "parentId": 16
  },
  {
    "id": "1440",
    "address": "კოსმონავტების სანაპირო",
    "coordinates": [44.7751792, 41.7338633],
    "parentId": 1
  },
  {
    "id": "927",
    "address": "კოსტავას ქ.",
    "coordinates": [44.7784007, 41.7188857],
    "parentId": 23
  },
  {
    "id": "79",
    "address": "კოსტავას ქ.",
    "coordinates": [44.7784007, 41.7188857],
    "parentId": 3
  },
  {
    "id": "1059",
    "address": "კოტე აფხაზის ქ.",
    "coordinates": [44.80640080000001, 41.6921193],
    "parentId": 52
  },
  {
    "id": "1396",
    "address": "კოტე მახარაძის ქ.",
    "coordinates": [44.7829181, 41.7114233],
    "parentId": 23
  },
  {
    "id": "987",
    "address": "კოტეტიშვილის ქ.",
    "coordinates": [44.7953219, 41.696651],
    "parentId": 51
  },
  {
    "id": "857",
    "address": "კოშკოვანის ქ.",
    "coordinates": [44.8349708, 41.6906951],
    "parentId": 21
  },
  {
    "id": "484",
    "address": "კოხრეიძის ქ.",
    "coordinates": [44.7955718, 41.7373166],
    "parentId": 41
  },
  {
    "id": "988",
    "address": "კოჯრის გზატკეცილი",
    "parentId": 51
  },
  {
    "id": "989",
    "address": "კოჯრის ქ.",
    "coordinates": [44.7618512, 41.6685408],
    "parentId": 51
  },
  {
    "id": "331",
    "address": "კრწანისის ქ.",
    "coordinates": [44.8155069, 41.6730781],
    "parentId": 14
  },
  {
    "id": "741",
    "address": "კუმისის ქ.",
    "coordinates": [44.81187870000001, 41.7001904],
    "parentId": 31
  },
  {
    "id": "204",
    "address": "კუპრაძის ქ.",
    "coordinates": [44.8724851, 41.7046752],
    "parentId": 9
  },
  {
    "id": "485",
    "address": "კურსების ქ.",
    "coordinates": [44.807574, 41.7382022],
    "parentId": 41
  },
  {
    "id": "990",
    "address": "კურსკის ქ.",
    "parentId": 51
  },
  {
    "id": "1055",
    "address": "კუფტინის ქ.",
    "coordinates": [44.8032915, 41.6915249],
    "parentId": 52
  },
  {
    "id": "1056",
    "address": "ლ. ასათიანის ქ.",
    "coordinates": [44.8016493, 41.6891979],
    "parentId": 52
  },
  {
    "id": "991",
    "address": "ლ.ბოცვაძის ქ.",
    "coordinates": [44.7852667, 41.71049439999999],
    "parentId": 23
  },
  {
    "id": "3",
    "address": "ლ.მიქელაძის ქ.",
    "coordinates": [44.7781903, 41.763079],
    "parentId": 47
  },
  {
    "id": "1454",
    "address": "ლ.ქართლელიშვილის ქ.",
    "coordinates": [44.8056015, 41.73165119999999],
    "parentId": 41
  },
  {
    "id": "858",
    "address": "ლაგოდეხის ქ.",
    "coordinates": [44.8145512, 41.691914],
    "parentId": 21
  },
  {
    "id": "1363",
    "address": "ლადო კოტეტიშვილის ქ.",
    "coordinates": [44.8696482, 41.7033941],
    "parentId": 9
  },
  {
    "id": "1378",
    "address": "ლალიონის შესახვევი",
    "coordinates": [44.8022488, 41.7228543],
    "parentId": 31
  },
  {
    "id": "487",
    "address": "ლამისყანის ქ.",
    "coordinates": [44.8252849, 41.7346025],
    "parentId": 41
  },
  {
    "id": "205",
    "address": "ლანდიას ქ.",
    "coordinates": [44.88260229999999, 41.7030928],
    "parentId": 9
  },
  {
    "id": "1251",
    "address": "ლარეხის ქ.",
    "coordinates": [44.815008, 41.7130151],
    "parentId": 31
  },
  {
    "id": "928",
    "address": "ლარსის ქ.",
    "coordinates": [44.7784897, 41.7056302],
    "parentId": 23
  },
  {
    "id": "1380",
    "address": "ლაღიძის ქ.",
    "coordinates": [44.8626053, 41.692468],
    "parentId": 9
  },
  {
    "id": "137",
    "address": "ლევანდოვსკის ქ.",
    "parentId": 49
  },
  {
    "id": "1057",
    "address": "ლეონიძის ქ.",
    "coordinates": [44.7994298, 41.692543],
    "parentId": 52
  },
  {
    "id": "23",
    "address": "ლეჟავას ქ.",
    "coordinates": [44.853632, 41.70843139999999],
    "parentId": 47
  },
  {
    "id": "1058",
    "address": "ლერმონტოვის ქ.",
    "coordinates": [44.8015688, 41.6912609],
    "parentId": 52
  },
  {
    "id": "993",
    "address": "ლესია უკრაინკას ქ.",
    "coordinates": [44.7974943, 41.6979803],
    "parentId": 51
  },
  {
    "id": "489",
    "address": "ლეჩხუმის ქ.",
    "coordinates": [44.7999658, 41.735088],
    "parentId": 41
  },
  {
    "id": "883",
    "address": "ლეხ კაჩინსკის ქ.",
    "coordinates": [44.8285083, 41.6864014],
    "parentId": 10
  },
  {
    "id": "138",
    "address": "ლვოვის ქ.",
    "coordinates": [44.7620599, 41.7319174],
    "parentId": 49
  },
  {
    "id": "1384",
    "address": "ლიზა ნაკაშიძე-ბოლქვაძის ქ.",
    "parentId": 9
  },
  {
    "id": "490",
    "address": "ლიკანის ქ.",
    "coordinates": [44.8041129, 41.7295284],
    "parentId": 41
  },
  {
    "id": "491",
    "address": "ლისაშვილის ქ.",
    "coordinates": [44.80976829999999, 41.735176],
    "parentId": 41
  },
  {
    "id": "80",
    "address": "ლიხაურის ქ.",
    "coordinates": [44.76682479999999, 41.7168987],
    "parentId": 3
  },
  {
    "id": "81",
    "address": "ლიხაურის შეს.",
    "coordinates": [44.7680996, 41.716685],
    "parentId": 3
  },
  {
    "id": "82",
    "address": "ლიხაურის ჩიხი,",
    "coordinates": [44.7687738, 41.7169158],
    "parentId": 3
  },
  {
    "id": "1524",
    "address": "ლობჟანიძის ქ.",
    "coordinates": [44.84200389999999, 41.6845517],
    "parentId": 10
  },
  {
    "id": "492",
    "address": "ლომთათიძის ქ.",
    "coordinates": [44.7983247, 41.7458573],
    "parentId": 41
  },
  {
    "id": "139",
    "address": "ლომონოსოვის ქ.",
    "coordinates": [44.7593857, 41.73293820000001],
    "parentId": 49
  },
  {
    "id": "1445",
    "address": "ლომოურის ქ.",
    "parentId": 21
  },
  {
    "id": "311",
    "address": "ლორთქიფანიძის ქ.",
    "coordinates": [44.7789162, 41.72104350000001],
    "parentId": 14
  },
  {
    "id": "493",
    "address": "ლოტკინის მთა,",
    "coordinates": [44.8141516, 41.7318191],
    "parentId": 41
  },
  {
    "id": "494",
    "address": "ლოტკინის ხევი,",
    "coordinates": [44.8128918, 41.7323017],
    "parentId": 41
  },
  {
    "id": "743",
    "address": "ლოჭინის ქ.",
    "coordinates": [44.8072965, 41.7070652],
    "parentId": 31
  },
  {
    "id": "495",
    "address": "ლუბოვსკის ქ.",
    "coordinates": [44.8048934, 41.7384604],
    "parentId": 41
  },
  {
    "id": "859",
    "address": "ლუსინიანის ქ.",
    "coordinates": [44.82538419999999, 41.6860874],
    "parentId": 21
  },
  {
    "id": "83",
    "address": "მ. ალექსიძის ქ.",
    "coordinates": [44.7803084, 41.7175545],
    "parentId": 3
  },
  {
    "id": "994",
    "address": "მ. ლაღიძის ქ.",
    "coordinates": [44.8626053, 41.692468],
    "parentId": 51
  },
  {
    "id": "496",
    "address": "მ. ქავთარაძის ქ.",
    "parentId": 41
  },
  {
    "id": "1523",
    "address": "მ. ჯაფარიძის ქ.",
    "coordinates": [44.7706873, 41.700361],
    "parentId": 51
  },
  {
    "id": "24",
    "address": "მ.აბაშიძის ქ.",
    "coordinates": [44.8282018, 41.796306],
    "parentId": 47
  },
  {
    "id": "84",
    "address": "მ.ასათიანის ქ.",
    "coordinates": [44.8183466, 41.7098876],
    "parentId": 3
  },
  {
    "id": "140",
    "address": "მ.გელოვანის ქ.",
    "coordinates": [44.7626835, 41.7328421],
    "parentId": 49
  },
  {
    "id": "634",
    "address": "მ.ლებანიძის ქ.",
    "coordinates": [44.7918203, 41.7193118],
    "parentId": 1
  },
  {
    "id": "1503",
    "address": "მ.მდივნის ქ.",
    "parentId": 16
  },
  {
    "id": "497",
    "address": "მ.მესხის ქ.",
    "coordinates": [44.7454906, 41.768383],
    "parentId": 41
  },
  {
    "id": "744",
    "address": "მ.მრევლიშვილის ქ.",
    "coordinates": [44.8223626, 41.7040915],
    "parentId": 22
  },
  {
    "id": "929",
    "address": "მ.ჯავახიშვილის ქ.",
    "coordinates": [44.7917506, 41.7051428],
    "parentId": 23
  },
  {
    "id": "745",
    "address": "მაზნიაშვილის ქ.",
    "coordinates": [44.8024312, 41.706978],
    "parentId": 31
  },
  {
    "id": "235",
    "address": "მათიაშვილის ქ.",
    "coordinates": [44.8503569, 41.69308669999999],
    "parentId": 10
  },
  {
    "id": "649",
    "address": "მაიაკოვსკის ქ.",
    "coordinates": [44.7851965, 41.7244921],
    "parentId": 1
  },
  {
    "id": "206",
    "address": "მაისურაძის ქ.",
    "coordinates": [44.8931647, 41.7017596],
    "parentId": 9
  },
  {
    "id": "995",
    "address": "მამა დავითის აღმართი,",
    "coordinates": [44.7903274, 41.696231],
    "parentId": 51
  },
  {
    "id": "154",
    "address": "მამასახლისოვის ქ.",
    "coordinates": [44.7204816, 41.7195385],
    "parentId": 5
  },
  {
    "id": "1555",
    "address": "მამია ალასანიას ქ.",
    "coordinates": [44.7568363, 41.7331274],
    "parentId": 49
  },
  {
    "id": "1314",
    "address": "მამისაშვილის ქ.",
    "coordinates": [44.876101, 41.6818533],
    "parentId": 16
  },
  {
    "id": "747",
    "address": "მამრაძის ქ.",
    "coordinates": [44.8007863, 41.718],
    "parentId": 31
  },
  {
    "id": "748",
    "address": "მამრაძის ხევი,",
    "coordinates": [44.8066878, 41.7176861],
    "parentId": 31
  },
  {
    "id": "498",
    "address": "მანგლისის ქ.",
    "coordinates": [44.8059207, 41.7244688],
    "parentId": 41
  },
  {
    "id": "499",
    "address": "მანჯგალაძის ქ.",
    "coordinates": [44.7993136, 41.7299163],
    "parentId": 41
  },
  {
    "id": "25",
    "address": "მარაბდის ქ.",
    "coordinates": [44.7703997, 41.7038226],
    "parentId": 47
  },
  {
    "id": "85",
    "address": "მარგიანის ქ.",
    "coordinates": [44.7283021, 41.726505],
    "parentId": 3
  },
  {
    "id": "1167",
    "address": "მარიჯანის ქ.",
    "coordinates": [44.72987029999999, 41.7225221],
    "parentId": 3
  },
  {
    "id": "1386",
    "address": "მარო თარხნიშვილის ქ.",
    "coordinates": [44.7472271, 41.7308061],
    "parentId": 3
  },
  {
    "id": "312",
    "address": "მარტვილის ქ.",
    "coordinates": [44.8229994, 41.6808828],
    "parentId": 14
  },
  {
    "id": "860",
    "address": "მარტყოფის ქ.",
    "coordinates": [44.8195839, 41.6952548],
    "parentId": 21
  },
  {
    "id": "26",
    "address": "მარუხის გმირების ქ.",
    "parentId": 47
  },
  {
    "id": "1519",
    "address": "მარშალ გელოვანის გამზ.",
    "coordinates": [44.7696027, 41.7525742],
    "parentId": 3
  },
  {
    "id": "749",
    "address": "მარჯანიშვილის მოედანი",
    "coordinates": [44.7977044, 41.7092335],
    "parentId": 31
  },
  {
    "id": "750",
    "address": "მარჯანიშვილის ქ.",
    "coordinates": [41.6344192, 41.649088],
    "parentId": 31
  },
  {
    "id": "501",
    "address": "მაღაროს ქ.",
    "coordinates": [44.8108868, 41.7322116],
    "parentId": 41
  },
  {
    "id": "996",
    "address": "მაყაშვილის აღმ.",
    "parentId": 51
  },
  {
    "id": "930",
    "address": "მაყაშვილის ქ.",
    "coordinates": [44.7867416, 41.7026196],
    "parentId": 23
  },
  {
    "id": "1060",
    "address": "მაჩაბლის ქ.",
    "coordinates": [44.7998681, 41.6911843],
    "parentId": 52
  },
  {
    "id": "502",
    "address": "მაჩხაანის ქ.",
    "coordinates": [44.8143321, 41.7364559],
    "parentId": 41
  },
  {
    "id": "1496",
    "address": "მაჭავარიანის ქ.",
    "coordinates": [44.761506, 41.7424432],
    "parentId": 23
  },
  {
    "id": "861",
    "address": "მახათას ქ.",
    "coordinates": [44.8178418, 41.6941362],
    "parentId": 21
  },
  {
    "id": "751",
    "address": "მახალდიანის ქ.",
    "coordinates": [44.8012027, 41.7264016],
    "parentId": 31
  },
  {
    "id": "503",
    "address": "მახინჯაურის ქ.",
    "parentId": 41
  },
  {
    "id": "141",
    "address": "მგალობლიშვილის ქ.",
    "coordinates": [44.7669816, 41.7336484],
    "parentId": 49
  },
  {
    "id": "86",
    "address": "მეგრელაძის ქ.",
    "coordinates": [44.75371579999999, 41.7303459],
    "parentId": 3
  },
  {
    "id": "87",
    "address": "მეგრელაძის შეს.",
    "coordinates": [44.75371579999999, 41.7303459],
    "parentId": 3
  },
  {
    "id": "237",
    "address": "მელაანის ქ.",
    "coordinates": [44.832142, 41.6937367],
    "parentId": 10
  },
  {
    "id": "931",
    "address": "მელიქიშვილის ქ.",
    "coordinates": [44.7832024, 41.7079412],
    "parentId": 23
  },
  {
    "id": "1534",
    "address": "მელქაძის ქ.",
    "coordinates": [44.8224002, 41.6798873],
    "parentId": 14
  },
  {
    "id": "313",
    "address": "მერჩულეს ქ.",
    "coordinates": [44.81510189999999, 41.6857006],
    "parentId": 14
  },
  {
    "id": "238",
    "address": "მესხეთის ქ.",
    "coordinates": [44.8483473, 41.6927621],
    "parentId": 10
  },
  {
    "id": "1252",
    "address": "მესხიას ქ.",
    "coordinates": [44.79537490000001, 41.7021037],
    "parentId": 51
  },
  {
    "id": "862",
    "address": "მესხიშვილის ქ.",
    "coordinates": [44.8144421, 41.6948192],
    "parentId": 21
  },
  {
    "id": "863",
    "address": "მეტეხის აღმ.",
    "coordinates": [44.8100192, 41.6904229],
    "parentId": 21
  },
  {
    "id": "864",
    "address": "მეტეხის ქ.",
    "coordinates": [44.8139231, 41.6910698],
    "parentId": 21
  },
  {
    "id": "504",
    "address": "მეუნარგიას ქ.",
    "coordinates": [44.8048653, 41.7211186],
    "parentId": 31
  },
  {
    "id": "505",
    "address": "მექანიზაციის ქ.",
    "coordinates": [44.7838327, 41.7481053],
    "parentId": 41
  },
  {
    "id": "1196",
    "address": "მზია ერისთავის ქ",
    "coordinates": [44.7466632, 41.7375864],
    "parentId": 3
  },
  {
    "id": "865",
    "address": "მთავარანგელოზის ქ.",
    "coordinates": [44.8174171, 41.6938551],
    "parentId": 21
  },
  {
    "id": "997",
    "address": "მთაწმინდის ქ.",
    "coordinates": [44.7926682, 41.6963897],
    "parentId": 51
  },
  {
    "id": "183",
    "address": "მთისძირის ქ.",
    "coordinates": [44.8415625, 41.6987445],
    "parentId": 10
  },
  {
    "id": "184",
    "address": "მთისძირის შეს.",
    "coordinates": [44.8420582, 41.6989838],
    "parentId": 10
  },
  {
    "id": "932",
    "address": "მილორავას ქ.",
    "coordinates": [44.7850975, 41.705058],
    "parentId": 23
  },
  {
    "id": "933",
    "address": "მიმინოშვილის ქ.",
    "coordinates": [44.7883051, 41.7064562],
    "parentId": 23
  },
  {
    "id": "155",
    "address": "მინდელის ქ.",
    "coordinates": [44.7119278, 41.7248342],
    "parentId": 5
  },
  {
    "id": "314",
    "address": "მირზა შაჰის ქ.",
    "parentId": 14
  },
  {
    "id": "506",
    "address": "მირზაანის ქ.",
    "coordinates": [44.8145534, 41.7362578],
    "parentId": 41
  },
  {
    "id": "88",
    "address": "მიროტაძის ქ.",
    "coordinates": [44.7802775, 41.7217242],
    "parentId": 3
  },
  {
    "id": "650",
    "address": "მირცხულავას ქ.",
    "coordinates": [44.7745413, 41.7452457],
    "parentId": 1
  },
  {
    "id": "507",
    "address": "მიტინგის ქ.",
    "coordinates": [44.80873, 41.7323138],
    "parentId": 41
  },
  {
    "id": "27",
    "address": "მიშველაძის ქ.",
    "coordinates": [44.75369269999999, 41.7099876],
    "parentId": 47
  },
  {
    "id": "1230",
    "address": "მიცკევიჩის ქ.",
    "coordinates": [44.7657172, 41.7243643],
    "parentId": 3
  },
  {
    "id": "508",
    "address": "მოლოკოვის ქ.",
    "coordinates": [44.7998442, 41.743685],
    "parentId": 41
  },
  {
    "id": "28",
    "address": "მოსაშვილის ქ.",
    "coordinates": [44.7563328, 41.7104587],
    "parentId": 47
  },
  {
    "id": "1232",
    "address": "მოსიძის ქ.",
    "coordinates": [44.7935064, 41.6959746],
    "parentId": 51
  },
  {
    "id": "280",
    "address": "მოსკოვის გამზ.",
    "coordinates": [44.873306, 41.6784353],
    "parentId": 16
  },
  {
    "id": "509",
    "address": "მრევლიშვილის ქ.",
    "coordinates": [44.8245513, 41.7040875],
    "parentId": 41
  },
  {
    "id": "1061",
    "address": "მტკვრის ქ.",
    "coordinates": [44.8052248, 41.6982855],
    "parentId": 52
  },
  {
    "id": "510",
    "address": "მუშათა ქ.",
    "coordinates": [44.8089662, 41.7270135],
    "parentId": 41
  },
  {
    "id": "1531",
    "address": "მუხრან მაჭავარიანის ქ.",
    "coordinates": [44.761506, 41.7424432],
    "parentId": 3
  },
  {
    "id": "1367",
    "address": "მუჯირიშვილის ქ.",
    "coordinates": [44.8211607, 41.7039193],
    "parentId": 22
  },
  {
    "id": "1449",
    "address": "მშვიდობის ქ.",
    "coordinates": [44.76108360000001, 41.831456],
    "parentId": 9
  },
  {
    "id": "29",
    "address": "მცხეთის ქ.",
    "coordinates": [44.7710804, 41.7061126],
    "parentId": 47
  },
  {
    "id": "1525",
    "address": "მცხეთის ქ.",
    "coordinates": [44.7710804, 41.7061126],
    "parentId": 44
  },
  {
    "id": "30",
    "address": "ნ. ჟვანიას ქ.",
    "coordinates": [44.7693651, 41.7025236],
    "parentId": 47
  },
  {
    "id": "1425",
    "address": "ნ. ტაბიძის ქ.",
    "parentId": 14
  },
  {
    "id": "934",
    "address": "ნ.ნიკოლაძის ქ.",
    "coordinates": [44.7858942, 41.7070864],
    "parentId": 23
  },
  {
    "id": "1192",
    "address": "ნ.ჩხეიძის ქ.",
    "coordinates": [44.8090512, 41.7011062],
    "parentId": 31
  },
  {
    "id": "315",
    "address": "ნადიკვარის ქ.",
    "coordinates": [44.8162901, 41.6790342],
    "parentId": 14
  },
  {
    "id": "753",
    "address": "ნადირაძის ქ.",
    "coordinates": [44.7269534, 41.7190644],
    "parentId": 31
  },
  {
    "id": "342",
    "address": "ნავთლუღის ქ.",
    "coordinates": [44.840207, 41.6834158],
    "parentId": 10
  },
  {
    "id": "511",
    "address": "ნათაძის ქ.",
    "coordinates": [44.7903992, 41.7455779],
    "parentId": 41
  },
  {
    "id": "1168",
    "address": "ნათია ბაშალეიშვილის ქ.",
    "coordinates": [44.7807358, 41.7023972],
    "parentId": 23
  },
  {
    "id": "754",
    "address": "ნათიშვილის ქ.",
    "coordinates": [44.8065645, 41.7055323],
    "parentId": 31
  },
  {
    "id": "350",
    "address": "ნაკადულის I გას.",
    "coordinates": [44.8963702, 41.6644165],
    "parentId": 16
  },
  {
    "id": "351",
    "address": "ნაკადულის ქ.",
    "coordinates": [44.8962535, 41.6653051],
    "parentId": 16
  },
  {
    "id": "1062",
    "address": "ნაკაშიძეების ქ.",
    "coordinates": [44.8047459, 41.6954841],
    "parentId": 52
  },
  {
    "id": "1376",
    "address": "ნარიმანოვის ქ.",
    "coordinates": [44.8237495, 41.4641591],
    "parentId": 14
  },
  {
    "id": "866",
    "address": "ნასაკირალის ქ.",
    "coordinates": [44.8193841, 41.6944276],
    "parentId": 21
  },
  {
    "id": "90",
    "address": "ნასიძის ქ.",
    "coordinates": [44.7739302, 41.7155464],
    "parentId": 3
  },
  {
    "id": "91",
    "address": "ნატახტარის ქ.",
    "coordinates": [44.7729, 41.7186461],
    "parentId": 3
  },
  {
    "id": "31",
    "address": "ნაფარეულის ქ.",
    "coordinates": [44.7769032, 41.70828059999999],
    "parentId": 47
  },
  {
    "id": "512",
    "address": "ნაქალაქევის ქ.",
    "coordinates": [44.82509049999999, 41.7334756],
    "parentId": 41
  },
  {
    "id": "755",
    "address": "ნაქერალას ქ.",
    "coordinates": [44.81990039999999, 41.7025505],
    "parentId": 22
  },
  {
    "id": "897",
    "address": "ნიაბის I შეს.",
    "coordinates": [44.8264289, 41.6995386],
    "parentId": 22
  },
  {
    "id": "898",
    "address": "ნიაბის II შეს.",
    "coordinates": [44.8277347, 41.7017227],
    "parentId": 22
  },
  {
    "id": "899",
    "address": "ნიაბის III შეს.",
    "coordinates": [44.8277347, 41.7017227],
    "parentId": 22
  },
  {
    "id": "900",
    "address": "ნიაბის IV შეს.",
    "coordinates": [44.8277347, 41.7017227],
    "parentId": 22
  },
  {
    "id": "901",
    "address": "ნიაბის V შეს.",
    "coordinates": [44.8283397, 41.7016094],
    "parentId": 22
  },
  {
    "id": "902",
    "address": "ნიაბის ქ.",
    "coordinates": [44.8243059, 41.7004128],
    "parentId": 22
  },
  {
    "id": "998",
    "address": "ნიაღვრის ქ.",
    "coordinates": [44.79428559999999, 41.6955729],
    "parentId": 51
  },
  {
    "id": "316",
    "address": "ნიზამის ქ.",
    "parentId": 14
  },
  {
    "id": "513",
    "address": "ნიკო მარის ქ.",
    "coordinates": [44.8006849, 41.73322719999999],
    "parentId": 41
  },
  {
    "id": "32",
    "address": "ნინო რამიშვილის ქ.",
    "coordinates": [44.7677603, 41.7106802],
    "parentId": 47
  },
  {
    "id": "756",
    "address": "ნინოშვილის ქ.",
    "coordinates": [44.7998294, 41.7140022],
    "parentId": 31
  },
  {
    "id": "1385",
    "address": "ნინუას ქ.",
    "coordinates": [44.787578, 41.7440485],
    "parentId": 41
  },
  {
    "id": "867",
    "address": "ნიორაძის ქ.",
    "coordinates": [44.8232401, 41.69076829999999],
    "parentId": 21
  },
  {
    "id": "757",
    "address": "ნიშნიანიძის ქ.",
    "coordinates": [44.8044603, 41.69600459999999],
    "parentId": 51
  },
  {
    "id": "1508",
    "address": "ნოე ხომერიკის ქ.",
    "parentId": 10
  },
  {
    "id": "868",
    "address": "ნოსირის ქ.",
    "coordinates": [44.8323613, 41.6905093],
    "parentId": 21
  },
  {
    "id": "515",
    "address": "ნოსტეს ქ.",
    "coordinates": [44.8119879, 41.7283654],
    "parentId": 41
  },
  {
    "id": "92",
    "address": "ნუცუბიძის ქ.",
    "coordinates": [44.737804, 41.7274332],
    "parentId": 3
  },
  {
    "id": "1241",
    "address": "ო.ლორთქიფანიძის ქ.",
    "coordinates": [44.738792, 41.71891859999999],
    "parentId": 3
  },
  {
    "id": "810",
    "address": "ო.ჩხეიძის ქ.",
    "parentId": 3
  },
  {
    "id": "758",
    "address": "ობსერვატორიის ქ.",
    "parentId": 21
  },
  {
    "id": "142",
    "address": "ოდესის ქ.",
    "coordinates": [44.7669816, 41.7336484],
    "parentId": 49
  },
  {
    "id": "1342",
    "address": "ონაშვილის ქ.",
    "coordinates": [44.8603762, 41.6894184],
    "parentId": 16
  },
  {
    "id": "239",
    "address": "ონიანის ქ.",
    "coordinates": [44.8403138, 41.6910493],
    "parentId": 10
  },
  {
    "id": "143",
    "address": "ონიაშვილის ქ.",
    "coordinates": [44.763051, 41.7313239],
    "parentId": 49
  },
  {
    "id": "1063",
    "address": "ონის ქ.",
    "parentId": 52
  },
  {
    "id": "516",
    "address": "ორბეთის ქ.",
    "coordinates": [44.82500870000001, 41.7329662],
    "parentId": 41
  },
  {
    "id": "759",
    "address": "ორბელიანის მოედ.",
    "coordinates": [44.8008225, 41.6967301],
    "parentId": 31
  },
  {
    "id": "760",
    "address": "ორბელიანის ქ.",
    "coordinates": [44.8040528, 41.6987746],
    "parentId": 31
  },
  {
    "id": "317",
    "address": "ორთაჭალის ქ.",
    "coordinates": [44.8165074, 41.6763898],
    "parentId": 14
  },
  {
    "id": "1064",
    "address": "ორპირის ქ.",
    "coordinates": [44.8092467, 41.6885349],
    "parentId": 52
  },
  {
    "id": "144",
    "address": "ოსეთის ქ.",
    "parentId": 49
  },
  {
    "id": "1339",
    "address": "ოსიაურის ქ.",
    "coordinates": [44.806839, 41.711365],
    "parentId": 31
  },
  {
    "id": "318",
    "address": "ოფრეთის ქ.",
    "parentId": 14
  },
  {
    "id": "1065",
    "address": "ოქრომჭედლების ქ.",
    "coordinates": [44.804019, 41.6938937],
    "parentId": 52
  },
  {
    "id": "999",
    "address": "ოქროყანის ქ.",
    "coordinates": [44.7917169, 41.690079],
    "parentId": 51
  },
  {
    "id": "352",
    "address": "ოცხელის ქ.",
    "parentId": 16
  },
  {
    "id": "1000",
    "address": "ოძელაშვილის ქ.",
    "coordinates": [44.9595469, 41.74069799999999],
    "parentId": 51
  },
  {
    "id": "761",
    "address": "ოძისის ქ.",
    "coordinates": [44.818762, 41.7002041],
    "parentId": 22
  },
  {
    "id": "1559",
    "address": "პ. დათუაშვილის ქ.",
    "parentId": 3
  },
  {
    "id": "75",
    "address": "პ. იოსელიანის ქ.",
    "coordinates": [44.7707936, 41.7157787],
    "parentId": 3
  },
  {
    "id": "1001",
    "address": "პ. კაკაბაძის ქ.",
    "coordinates": [44.78980869999999, 41.6993253],
    "parentId": 51
  },
  {
    "id": "762",
    "address": "პ.სააკაძის ქ.",
    "coordinates": [44.8239367, 41.8170648],
    "parentId": 31
  },
  {
    "id": "1240",
    "address": "პ.ჯანელიძის ქ.",
    "parentId": 10
  },
  {
    "id": "763",
    "address": "პალიასტომის ქ.",
    "coordinates": [44.8050369, 41.7142134],
    "parentId": 31
  },
  {
    "id": "93",
    "address": "პანკისის ქ.",
    "coordinates": [44.7748053, 41.7180537],
    "parentId": 3
  },
  {
    "id": "764",
    "address": "პასტერის ქ.",
    "coordinates": [44.79289989999999, 41.71408539999999],
    "parentId": 31
  },
  {
    "id": "240",
    "address": "პატარძეულის ქ.",
    "coordinates": [44.8361434, 41.6848135],
    "parentId": 10
  },
  {
    "id": "94",
    "address": "პეკინის ქ.",
    "coordinates": [44.77235, 41.7235781],
    "parentId": 3
  },
  {
    "id": "1313",
    "address": "პერინის ქ.",
    "coordinates": [44.9091884, 41.6561124],
    "parentId": 16
  },
  {
    "id": "935",
    "address": "პეტრიაშვილის ქ.",
    "coordinates": [44.7796904, 41.7060407],
    "parentId": 23
  },
  {
    "id": "765",
    "address": "პიატიგორსკის ქ.",
    "coordinates": [44.8074187, 41.7167031],
    "parentId": 31
  },
  {
    "id": "766",
    "address": "პლატონის ქ.",
    "parentId": 31
  },
  {
    "id": "157",
    "address": "პოლიტკოვსკაიას ქ. (ჯიქიას ქ.)",
    "coordinates": [44.7145873, 41.7208414],
    "parentId": 3
  },
  {
    "id": "1066",
    "address": "პუშკინის ქ.",
    "coordinates": [44.8023308, 41.6952795],
    "parentId": 52
  },
  {
    "id": "767",
    "address": "ჟონეთის ქ.",
    "coordinates": [44.8236792, 41.70145429999999],
    "parentId": 22
  },
  {
    "id": "33",
    "address": "რ. ერისთავის ქ.",
    "parentId": 47
  },
  {
    "id": "1003",
    "address": "რ. ლაღიძის ქ.",
    "coordinates": [44.7970249, 41.7025477],
    "parentId": 51
  },
  {
    "id": "936",
    "address": "რ. ჯაფარიძის ქ.",
    "coordinates": [45.3191863, 41.7334785],
    "parentId": 23
  },
  {
    "id": "1242",
    "address": "რ.მუსხელიშვილის ქ.",
    "coordinates": [44.851465, 41.69862],
    "parentId": 51
  },
  {
    "id": "1180",
    "address": "რ.ჩხიკვაძის ქ.",
    "coordinates": [44.776542, 41.710444],
    "parentId": 47
  },
  {
    "id": "34",
    "address": "რადიანის ქ.",
    "coordinates": [44.7688674, 41.7063998],
    "parentId": 47
  },
  {
    "id": "769",
    "address": "რაზიკაშვილის ქ.",
    "coordinates": [44.8151044, 41.6994325],
    "parentId": 21
  },
  {
    "id": "517",
    "address": "რიონჰესის ქ.",
    "parentId": 41
  },
  {
    "id": "1004",
    "address": "რიწის ქ.",
    "coordinates": [44.7913456, 41.6996478],
    "parentId": 51
  },
  {
    "id": "1397",
    "address": "რკინიგზის ქ.",
    "coordinates": [44.7983904, 41.72582209999999],
    "parentId": 41
  },
  {
    "id": "1067",
    "address": "რკინის რიგი შეს.",
    "coordinates": [44.8086698, 41.6903257],
    "parentId": 52
  },
  {
    "id": "937",
    "address": "როდენის ქ.",
    "coordinates": [44.7820644, 41.7087624],
    "parentId": 23
  },
  {
    "id": "1319",
    "address": "რომის ქ.",
    "coordinates": [44.8031607, 41.7046832],
    "parentId": 31
  },
  {
    "id": "869",
    "address": "რუისის ქ.",
    "parentId": 21
  },
  {
    "id": "770",
    "address": "რუისპირის ქ.",
    "coordinates": [44.8193935, 41.7020369],
    "parentId": 22
  },
  {
    "id": "1005",
    "address": "რუსთაველის გამზ.",
    "coordinates": [44.796987, 41.69966480000001],
    "parentId": 51
  },
  {
    "id": "938",
    "address": "რჩეულიშვილის ქ.",
    "coordinates": [44.7776771, 41.7026597],
    "parentId": 23
  },
  {
    "id": "1480",
    "address": "ს. არშბას ქ.",
    "coordinates": [44.7679158, 41.7338243],
    "parentId": 3
  },
  {
    "id": "1187",
    "address": "ს. ჟღენტის ქ.",
    "parentId": 51
  },
  {
    "id": "939",
    "address": "ს. ჭიაურელის ქ.",
    "parentId": 23
  },
  {
    "id": "1205",
    "address": "ს. ჭილაიას ქ.",
    "coordinates": [44.787251, 41.7418518],
    "parentId": 41
  },
  {
    "id": "241",
    "address": "ს.დურმიშიძის ქ.",
    "coordinates": [44.8445472, 41.6908004],
    "parentId": 10
  },
  {
    "id": "1006",
    "address": "ს.მესხის ქ.",
    "parentId": 51
  },
  {
    "id": "651",
    "address": "ს.მეტრეველის ქ.",
    "coordinates": [44.796886, 41.732575],
    "parentId": 1
  },
  {
    "id": "95",
    "address": "ს.ჩიქოვანის ქ.",
    "coordinates": [44.7640541, 41.7150193],
    "parentId": 3
  },
  {
    "id": "96",
    "address": "ს.ცინცაძის ქ.",
    "coordinates": [44.7633598, 41.7213088],
    "parentId": 3
  },
  {
    "id": "771",
    "address": "ს.წერეთლის ქ.",
    "parentId": 31
  },
  {
    "id": "1068",
    "address": "საადის ქ.",
    "parentId": 52
  },
  {
    "id": "1207",
    "address": "სააკაძის დაღმართი",
    "coordinates": [44.7780693, 41.7253401],
    "parentId": 3
  },
  {
    "id": "870",
    "address": "საბადურის ქ.",
    "parentId": 21
  },
  {
    "id": "242",
    "address": "საბარგო დას.",
    "coordinates": [44.84125350000001, 41.6914123],
    "parentId": 10
  },
  {
    "id": "98",
    "address": "საგარეჯოს ქ.",
    "parentId": 3
  },
  {
    "id": "1007",
    "address": "სავანელის ქ.",
    "coordinates": [44.8021507, 41.70525079999999],
    "parentId": 51
  },
  {
    "id": "1069",
    "address": "საიათნოვას ქ.",
    "coordinates": [44.80499270000001, 41.6914722],
    "parentId": 52
  },
  {
    "id": "772",
    "address": "საინგილოს ქ.",
    "parentId": 22
  },
  {
    "id": "99",
    "address": "საირმის გორა,",
    "coordinates": [44.7558908, 41.7238562],
    "parentId": 3
  },
  {
    "id": "100",
    "address": "საირმის ქ.",
    "coordinates": [44.7617541, 41.72259589999999],
    "parentId": 3
  },
  {
    "id": "1070",
    "address": "სალამის ქ.",
    "coordinates": [44.8078799, 41.6890787],
    "parentId": 52
  },
  {
    "id": "520",
    "address": "სამოქალაქოს ქ.",
    "parentId": 41
  },
  {
    "id": "1264",
    "address": "სამრეკლოს ქ.",
    "coordinates": [44.8139714, 41.6982679],
    "parentId": 21
  },
  {
    "id": "652",
    "address": "სამტრედიის ქ.",
    "coordinates": [44.7749316, 41.7429444],
    "parentId": 1
  },
  {
    "id": "1071",
    "address": "სამღებროს ქ,",
    "coordinates": [44.8096475, 41.6891381],
    "parentId": 52
  },
  {
    "id": "521",
    "address": "სამღერეთის ქ.",
    "coordinates": [44.8212509, 41.7327881],
    "parentId": 41
  },
  {
    "id": "522",
    "address": "სამშვილდის ქ.",
    "coordinates": [44.8076534, 41.723641],
    "parentId": 41
  },
  {
    "id": "1366",
    "address": "სამხედრო ქალაქი 202",
    "parentId": 22
  },
  {
    "id": "1388",
    "address": "სანაპიროს ქ.",
    "coordinates": [44.8059498, 41.6992267],
    "parentId": 51
  },
  {
    "id": "153",
    "address": "სანდრო ეულის ქ.",
    "coordinates": [44.7174957, 41.7227221],
    "parentId": 5
  },
  {
    "id": "524",
    "address": "სანერგის ქ.",
    "coordinates": [44.8052341, 41.7363151],
    "parentId": 41
  },
  {
    "id": "774",
    "address": "სანკტ-პეტერბურგის ქ.",
    "coordinates": [44.7967515, 41.708312],
    "parentId": 31
  },
  {
    "id": "525",
    "address": "სართანიას ქ.",
    "coordinates": [44.8063298, 41.7306367],
    "parentId": 41
  },
  {
    "id": "871",
    "address": "სართიჭალის ქ.",
    "coordinates": [44.8188047, 41.6910859],
    "parentId": 21
  },
  {
    "id": "526",
    "address": "სარკინეთის ქ.",
    "coordinates": [44.8121193, 41.7203288],
    "parentId": 41
  },
  {
    "id": "2533",
    "address": "საქართველოს ერთიანობისათვის მებრძოლთა ქ.",
    "coordinates": [44.8796225, 41.6984632],
    "parentId": 9
  },
  {
    "id": "1566",
    "address": "საყანდელიძის ქ.",
    "parentId": 44
  },
  {
    "id": "527",
    "address": "საყვირის ქ.",
    "coordinates": [44.79336929999999, 41.73605269999999],
    "parentId": 41
  },
  {
    "id": "528",
    "address": "საჭილაოს ქ.",
    "coordinates": [44.8025733, 41.7313209],
    "parentId": 41
  },
  {
    "id": "145",
    "address": "სახოკიას ქ.",
    "coordinates": [44.7687815, 41.7361927],
    "parentId": 49
  },
  {
    "id": "35",
    "address": "საჯაიას ქ.",
    "coordinates": [44.7612106, 41.7121299],
    "parentId": 47
  },
  {
    "id": "872",
    "address": "სევანის ქ.",
    "coordinates": [44.8177063, 41.6934202],
    "parentId": 21
  },
  {
    "id": "529",
    "address": "სვანეთის ქ.",
    "coordinates": [44.7966063, 41.7350965],
    "parentId": 41
  },
  {
    "id": "1405",
    "address": "სვანიძის ქ.",
    "coordinates": [44.7433797, 41.71438759999999],
    "parentId": 47
  },
  {
    "id": "530",
    "address": "სვირის ქ.",
    "coordinates": [44.8058054, 41.7386416],
    "parentId": 41
  },
  {
    "id": "1072",
    "address": "სიონის ქ.",
    "coordinates": [44.8077822, 41.6905791],
    "parentId": 52
  },
  {
    "id": "776",
    "address": "სიღნაღის ქ.",
    "coordinates": [44.8107313, 41.7099175],
    "parentId": 31
  },
  {
    "id": "1073",
    "address": "სობჩაკის ქ.",
    "parentId": 52
  },
  {
    "id": "1074",
    "address": "სოლოლაკის ხეივანი,",
    "parentId": 52
  },
  {
    "id": "777",
    "address": "სომხეთის ქ.",
    "coordinates": [44.8248732, 41.6999401],
    "parentId": 31
  },
  {
    "id": "319",
    "address": "სოღანლუღის შეს.",
    "coordinates": [44.8124868, 41.6859206],
    "parentId": 14
  },
  {
    "id": "653",
    "address": "სოხუმის ქ.",
    "coordinates": [44.9165377, 41.6331023],
    "parentId": 1
  },
  {
    "id": "873",
    "address": "სპანდარიანის ქ.",
    "parentId": 21
  },
  {
    "id": "1263",
    "address": "სპარტაკის ქ.",
    "coordinates": [44.8122038, 41.6979655],
    "parentId": 21
  },
  {
    "id": "654",
    "address": "სტანისლავსკის ქ.",
    "coordinates": [44.7797863, 41.7389175],
    "parentId": 1
  },
  {
    "id": "531",
    "address": "სტურუას ქ.",
    "coordinates": [44.9838312, 41.6801841],
    "parentId": 41
  },
  {
    "id": "532",
    "address": "სუვოროვის ქ.",
    "coordinates": [44.8233953, 41.7352861],
    "parentId": 41
  },
  {
    "id": "1321",
    "address": "სულთნიშანის ქ.",
    "coordinates": [44.8050839, 41.6943984],
    "parentId": 52
  },
  {
    "id": "778",
    "address": "სულიაშვილის ქ.",
    "coordinates": [44.8086432, 41.7015432],
    "parentId": 31
  },
  {
    "id": "779",
    "address": "სულხანიშვილის ქ.",
    "coordinates": [44.8044489, 41.6972399],
    "parentId": 52
  },
  {
    "id": "1075",
    "address": "სულხან-საბას ქ.",
    "coordinates": [44.7991699, 41.6930464],
    "parentId": 52
  },
  {
    "id": "533",
    "address": "სუმბათაშვილ-იუჟინის ქ.",
    "coordinates": [44.8033324, 41.7311417],
    "parentId": 41
  },
  {
    "id": "780",
    "address": "სუნდუკიანის ქ.",
    "coordinates": [44.8024553, 41.7054231],
    "parentId": 31
  },
  {
    "id": "781",
    "address": "სურამის ქ.",
    "coordinates": [44.7952552, 41.71878],
    "parentId": 31
  },
  {
    "id": "101",
    "address": "სხირტლაძის ქ.",
    "coordinates": [44.7424033, 41.7222247],
    "parentId": 3
  },
  {
    "id": "783",
    "address": "სხულუხიას ქ.",
    "coordinates": [44.8037558, 41.7135865],
    "parentId": 31
  },
  {
    "id": "36",
    "address": "ტ.ტაბიძის ქ.",
    "coordinates": [44.7575584, 41.7071795],
    "parentId": 47
  },
  {
    "id": "320",
    "address": "ტაბახმელას ქ.",
    "coordinates": [44.8116177, 41.6867241],
    "parentId": 14
  },
  {
    "id": "102",
    "address": "ტანძიის ქ.",
    "coordinates": [44.7595923, 41.7240374],
    "parentId": 3
  },
  {
    "id": "1460",
    "address": "ტარიელის ქ.",
    "coordinates": [44.7905543, 41.6999992],
    "parentId": 51
  },
  {
    "id": "1128",
    "address": "ტაშირის ქ.",
    "coordinates": [44.814477, 41.7177281],
    "parentId": 31
  },
  {
    "id": "103",
    "address": "ტაშკენტის ქ.",
    "coordinates": [44.7632763, 41.7300908],
    "parentId": 3
  },
  {
    "id": "1076",
    "address": "ტელეგრაფის ჩიხი,",
    "coordinates": [44.8045528, 41.6987095],
    "parentId": 52
  },
  {
    "id": "784",
    "address": "ტერენტი გრანელის ქ.",
    "coordinates": [44.8060951, 41.7105513],
    "parentId": 31
  },
  {
    "id": "785",
    "address": "ტეტელაშვილის ქ.",
    "coordinates": [44.79531220000001, 41.7107796],
    "parentId": 31
  },
  {
    "id": "104",
    "address": "ტეხურის ქ.",
    "coordinates": [44.7714412, 41.7182691],
    "parentId": 3
  },
  {
    "id": "1504",
    "address": "ტირიფონის ქ.",
    "parentId": 21
  },
  {
    "id": "786",
    "address": "ტოვსტონოგოვის ქ.",
    "coordinates": [44.7954282, 41.71360929999999],
    "parentId": 31
  },
  {
    "id": "243",
    "address": "ტოლენჯის ქ.",
    "parentId": 10
  },
  {
    "id": "787",
    "address": "ტოლსტოის ქ.",
    "coordinates": [44.8061587, 41.70247699999999],
    "parentId": 31
  },
  {
    "id": "655",
    "address": "ტრანსპორტის ქ.",
    "coordinates": [44.7787823, 41.75048220000001],
    "parentId": 1
  },
  {
    "id": "534",
    "address": "ტრაქტორის ქ.",
    "parentId": 41
  },
  {
    "id": "535",
    "address": "ტრიკოტაჟის ქ.",
    "parentId": 41
  },
  {
    "id": "788",
    "address": "ტურგენევის ქ.",
    "coordinates": [44.8039604, 41.7074034],
    "parentId": 31
  },
  {
    "id": "105",
    "address": "ტუსკიას ქ.",
    "coordinates": [44.77101039999999, 41.7177402],
    "parentId": 3
  },
  {
    "id": "536",
    "address": "ტყეშელაშვილის ქ.",
    "parentId": 31
  },
  {
    "id": "106",
    "address": "ტყვარჩელის ქ.",
    "coordinates": [44.7796516, 41.7176707],
    "parentId": 3
  },
  {
    "id": "789",
    "address": "ტყვიავის ქ.",
    "coordinates": [44.8043425, 41.7037839],
    "parentId": 31
  },
  {
    "id": "790",
    "address": "უ.ჩხეიძის ქ.",
    "parentId": 31
  },
  {
    "id": "874",
    "address": "უბილავას ქ.",
    "parentId": 21
  },
  {
    "id": "791",
    "address": "უზნაძის ქ.",
    "coordinates": [44.8547101, 41.6931819],
    "parentId": 31
  },
  {
    "id": "537",
    "address": "უიარაღოს ქ.",
    "coordinates": [44.812472, 41.7273715],
    "parentId": 41
  },
  {
    "id": "940",
    "address": "უმიკაშვილის ქ.",
    "coordinates": [44.7781987, 41.7047153],
    "parentId": 23
  },
  {
    "id": "107",
    "address": "უნივერსიტეტის ქ.",
    "coordinates": [44.7317791, 41.7178943],
    "parentId": 3
  },
  {
    "id": "875",
    "address": "ურბნისის ქ.",
    "coordinates": [44.8128194, 41.6915776],
    "parentId": 21
  },
  {
    "id": "538",
    "address": "ურიდიას ქ.",
    "coordinates": [44.8144528, 41.72970950000001],
    "parentId": 41
  },
  {
    "id": "792",
    "address": "ურიცკის ქ.",
    "parentId": 31
  },
  {
    "id": "1512",
    "address": "უსახელაურის ქ.",
    "parentId": 14
  },
  {
    "id": "190",
    "address": "უშაკოვის ქ.",
    "coordinates": [44.8417189, 41.698434],
    "parentId": 10
  },
  {
    "id": "49",
    "address": "უჩანეიშვილის I შეს.",
    "coordinates": [44.7204655, 41.7073024],
    "parentId": 44
  },
  {
    "id": "50",
    "address": "უჩანეიშვილის II შეს.",
    "parentId": 44
  },
  {
    "id": "51",
    "address": "უჩანეიშვილის ქ.",
    "coordinates": [44.72265420000001, 41.7072984],
    "parentId": 44
  },
  {
    "id": "1374",
    "address": "უცნობ გმირთა ქ.",
    "coordinates": [44.8078626, 41.7653942],
    "parentId": 41
  },
  {
    "id": "244",
    "address": "უჯარმის ქ.",
    "coordinates": [44.8361434, 41.6848135],
    "parentId": 10
  },
  {
    "id": "794",
    "address": "ფაბრიციუსის ქ.",
    "parentId": 31
  },
  {
    "id": "37",
    "address": "ფალიაშვილის ქ.",
    "coordinates": [44.7658899, 41.7087526],
    "parentId": 47
  },
  {
    "id": "108",
    "address": "ფანასკერტელის ქ.",
    "coordinates": [44.7636451, 41.7189494],
    "parentId": 3
  },
  {
    "id": "1457",
    "address": "ფანჯიკიძის ქ.",
    "coordinates": [44.764618, 41.7294062],
    "parentId": 3
  },
  {
    "id": "795",
    "address": "ფარავნის ქ.",
    "coordinates": [44.8086217, 41.7130271],
    "parentId": 31
  },
  {
    "id": "876",
    "address": "ფაღავას ქ.",
    "coordinates": [44.816785, 41.6924658],
    "parentId": 21
  },
  {
    "id": "1077",
    "address": "ფეთხაინის აღმ.",
    "parentId": 52
  },
  {
    "id": "877",
    "address": "ფერისცვალების ქ.",
    "coordinates": [44.8141189, 41.6913482],
    "parentId": 21
  },
  {
    "id": "539",
    "address": "ფილიას ქ.",
    "coordinates": [44.82863769999999, 41.73268],
    "parentId": 41
  },
  {
    "id": "878",
    "address": "ფირდოუსის ქ.",
    "coordinates": [44.8131935, 41.6881385],
    "parentId": 20
  },
  {
    "id": "796",
    "address": "ფიროსმანის ქ.",
    "coordinates": [44.8006636, 41.7178002],
    "parentId": 31
  },
  {
    "id": "656",
    "address": "ფოთის ქ.",
    "coordinates": [44.79087759999999, 41.7278349],
    "parentId": 1
  },
  {
    "id": "879",
    "address": "ფოსტის ქ.",
    "coordinates": [44.8181838, 41.6907363],
    "parentId": 21
  },
  {
    "id": "797",
    "address": "ფოცხვერაშვილის ქ.",
    "coordinates": [44.7972143, 41.7184429],
    "parentId": 31
  },
  {
    "id": "1009",
    "address": "ფურცელაძის ქ.",
    "coordinates": [44.8020503, 41.6974007],
    "parentId": 51
  },
  {
    "id": "798",
    "address": "ფშავის ქ.",
    "coordinates": [44.81786839999999, 41.7021506],
    "parentId": 22
  },